$GPGSV,3,2,12,24,32,051,,22,21,292,,01,20,315,,14,20,321,*71
$GPGSV,3,3,12,05,19,134,,13,18,348,,17,14,180,,10,10,110,*7F
$GPGLL,6459.8757,N,01433.8547,E,091931.375,A*3E
$GPGGA,091931.38,6459.8757,N,01433.8547,E,1,04,2.0,-0034,M,,,,*3D
$GPRMB,A,0.21,L,SIM003,SIM001,6500.0900,N,01433.8589,E,000.2,00..,000.0,V*18
$GPRMC,091931.38,A,6459.8757,N,01433.8547,E,21.7,177.3,200302,02.,E*6F
$GPAPB,A,A,0.2,L,N,,,87.6,M,SIM001,358.1,M,,,*16
$GPGSA,A,3,01,02,03,04,,,,,,,,,2.0,2.0,2.0*34
$GPGSV,3,1,12,06,53,095,,30,52,150,,15,51,090,,25,37,230,*7F
$GPGSV,3,2,12,24,32,051,,22,21,292,,01,20,315,,14,20,321,*71
$GPGSV,3,3,12,05,19,134,,13,18,348,,17,14,180,,10,10,110,*7F
$GPGLL,6459.8612,N,01433.8550,E,091933.781,A*35
$GPGGA,091933.78,6459.8612,N,01433.8550,E,1,04,2.0,-0034,M,,,,*3D
$GPRMB,A,0.23,L,SIM003,SIM001,6500.0900,N,01433.8589,E,000.2,00..,000.0,V*1A
$GPRMC,091933.78,A,6459.8612,N,01433.8550,E,21.7,177.3,200302,02.,E*6F
$GPAPB,A,A,0.2,L,N,,,87.6,M,SIM001,358.0,M,,,*17
$GPGSA,A,3,01,02,03,04,,,,,,,,,2.0,2.0,2.0*34
$GPGSV,3,1,12,06,53,095,,30,52,150,,15,51,090,,25,37,230,*7F
$GPGSV,3,2,12,24,32,051,,22,21,292,,01,20,315,,14,20,321,*71
$GPGSV,3,3,12,05,19,134,,13,18,348,,17,14,180,,10,10,110,*7F
$GPGLL,6459.8540,N,01433.8551,E,091934.969,A*3F
$GPGGA,091934.97,6459.8540,N,01433.8551,E,1,04,2.0,-0034,M,,,,*3E
$GPRMB,A,0.24,L,SIM003,SIM001,6500.0900,N,01433.8589,E,000.2,00..,000.0,V*1D
$GPRMC,091934.97,A,6459.8540,N,01433.8551,E,21.7,177.3,200302,02.,E*6C
$GPAPB,A,A,0.2,L,N,,,87.6,M,SIM001,358.0,M,,,*17
$GPGSA,A,3,01,02,03,04,,,,,,,,,2.0,2.0,2.0*34
$GPGSV,3,1,12,06,53,095,,30,52,150,,15,51,090,,25,37,230,*7F
$GPGSV,3,2,12,24,32,051,,22,21,292,,01,20,315,,14,20,321,*71
$GPGSV,3,3,12,05,19,134,,13,18,348,,17,14,180,,10,10,110,*7F
$GPGLL,6459.8395,N,01433.8554,E,091937.375,A*30
$GPGGA,091937.37,6459.8395,N,01433.8554,E,1,04,2.0,-0034,M,,,,*3C
$GPRMB,A,0.25,L,SIM003,SIM001,6500.0900,N,01433.8589,E,000.3,00..,000.0,V*1D
$GPRMC,091937.37,A,6459.8395,N,01433.8554,E,21.7,177.3,200302,02.,E*6E
$GPAPB,A,A,0.3,L,N,,,87.6,M,SIM001,357.9,M,,,*10
$GPGSA,A,3,01,02,03,04,,,,,,,,,2.0,2.0,2.0*34
$GPGSV,3,1,12,06,53,095,,30,52,150,,15,51,090,,25,37,230,*7F
$GPGSV,3,2,12,24,32,051,,22,21,292,,01,20,315,,14,20,321,*71
$GPGSV,3,3,12,05,19,134,,13,18,348,,17,14,180,,10,10,110,*7F
$GPGLL,6459.8250,N,01433.8557,E,091939.781,A*3A
$GPGGA,091939.78,6459.8250,N,01433.8557,E,1,04,2.0,-0034,M,,,,*32
$GPRMB,A,0.27,L,SIM003,SIM001,6500.0900,N,01433.8589,E,000.3,00..,000.0,V*1F
$GPRMC,091939.78,A,6459.8250,N,01433.8557,E,21.7,177.3,200302,02.,E*60
$GPAPB,A,A,0.3,L,N,,,87.6,M,SIM001,357.9,M,,,*10
$GPGSA,A,3,01,02,03,04,,,,,,,,,2.0,2.0,2.0*34
$GPGSV,3,1,12,06,53,095,,30,52,150,,15,51,090,,25,37,230,*7F
$GPGSV,3,2,12,24,32,051,,22,21,292,,01,20,315,,14,20,321,*71
$GPGSV,3,3,12,05,19,134,,13,18,348,,17,14,180,,10,10,110,*7F
$GPGLL,6459.8179,N,01433.8559,E,091940.969,A*3A
$GPGGA,091940.97,6459.8179,N,01433.8559,E,1,04,2.0,-0034,M,,,,*3B
$GPRMB,A,0.27,L,SIM003,SIM001,6500.0900,N,01433.8589,E,000.3,00..,000.0,V*1F
$GPRMC,091940.97,A,6459.8179,N,01433.8559,E,21.7,177.3,200302,02.,E*69
$GPAPB,A,A,0.3,L,N,,,87.6,M,SIM001,357.8,M,,,*11
$GPGSA,A,3,01,02,03,04,,,,,,,,,2.0,2.0,2.0*34
$GPGSV,3,1,12,06,53,095,,30,52,150,,15,51,090,,25,37,230,*7F
$GPGSV,3,2,12,24,32,051,,22,21,292,,01,20,315,,14,20,321,*71
$GPGSV,3,3,12,05,19,134,,13,18,348,,17,14,180,,10,10,110,*7F
$GPGLL,6459.8324,N,01433.8557,E,091943.375,A*3A
$GPGGA,091943.38,6459.8324,N,01433.8557,E,1,04,2.0,-0034,M,,,,*39
$GPRMB,A,0.26,L,SIM003,SIM001,6500.0900,N,01433.8589,E,000.3,00..,000.7,V*19
$GPRMC,091943.38,A,6459.8324,N,01433.8557,E,21.7,358.8,200302,02.,E*6F
$GPAPB,A,A,0.3,L,N,,,87.6,M,SIM001,357.9,M,,,*10
$GPGSA,A,3,01,02,03,04,,,,,,,,,2.0,2.0,2.0*34
$GPGSV,3,1,12,06,53,095,,30,52,150,,15,51,090,,25,37,230,*7F
$GPGSV,3,2,12,24,32,051,,22,21,292,,01,20,315,,14,20,321,*71
$GPGSV,3,3,12,05,19,134,,13,18,348,,17,14,180,,10,10,110,*7F
$GPGLL,6500.2102,N,01433.8523,E,092046.000,A*36
$GPGGA,092046.00,6500.2102,N,01433.8523,E,1,04,2.0,-0034,M,,,,*3F
$GPRMB,A,0.12,R,SIM003,SIM001,6500.0900,N,01433.8589,E,000.1,179.,000.0,V*14
$GPRMC,092046.00,A,6500.2102,N,01433.8523,E,21.7,358.8,200302,02.,E*69
$GPAPB,A,A,0.1,R,N,,,87.6,M,SIM001,176.2,M,,,*06
$GPGSA,A,3,01,02,03,04,,,,,,,,,2.0,2.0,2.0*34
$GPGSV,3,1,12,06,52,095,,15,51,089,,30,51,150,,25,36,229,*7C
$GPGSV,3,2,12,24,31,050,,22,22,292,,01,20,314,,14,20,320,*70
$GPGSV,3,3,12,05,19,134,,13,18,347,,17,15,180,,10,11,110,*70
$GPGLL,6500.2174,N,01433.8522,E,092047.188,A*36
$GPGGA,092047.19,6500.2174,N,01433.8522,E,1,04,2.0,-0034,M,,,,*36
$GPRMB,A,0.13,R,SIM003,SIM001,6500.0900,N,01433.8589,E,000.1,179.,000.0,V*15
$GPRMC,092047.19,A,6500.2174,N,01433.8522,E,21.7,358.8,200302,02.,E*60
$GPAPB,A,A,0.1,R,N,,,87.6,M,SIM001,176.3,M,,,*07
$GPGSA,A,3,01,02,03,04,,,,,,,,,2.0,2.0,2.0*34
$GPGSV,3,1,12,06,52,095,,15,51,089,,30,51,150,,25,36,229,*7C
$GPGSV,3,2,12,24,31,050,,22,22,292,,01,20,314,,14,20,320,*70
$GPGSV,3,3,12,05,19,134,,13,18,347,,17,15,180,,10,11,110,*70
$GPGLL,6500.2319,N,01433.8521,E,092049.594,A*3B
$GPGGA,092049.59,6500.2319,N,01433.8521,E,1,04,2.0,-0034,M,,,,*36
$GPRMB,A,0.14,R,SIM003,SIM001,6500.0900,N,01433.8589,E,000.1,179.,000.0,V*12
$GPRMC,092049.59,A,6500.2319,N,01433.8521,E,21.7,358.8,200302,02.,E*60
$GPAPB,A,A,0.1,R,N,,,87.6,M,SIM001,176.4,M,,,*00
$GPGSA,A,3,01,02,03,04,,,,,,,,,2.0,2.0,2.0*34
$GPGSV,3,1,12,06,52,095,,15,51,089,,30,51,150,,25,36,229,*7C
$GPGSV,3,2,12,24,31,050,,22,22,292,,01,20,314,,14,20,320,*70
$GPGSV,3,3,12,05,19,134,,13,18,347,,17,15,180,,10,11,110,*70
$GPGLL,6500.2464,N,01433.8520,E,092052.000,A*35
$GPGGA,092052.00,6500.2464,N,01433.8520,E,1,04,2.0,-0034,M,,,,*3C
$GPRMB,A,0.16,R,SIM003,SIM001,6500.0900,N,01433.8589,E,000.2,179.,000.0,V*13
$GPRMC,092052.00,A,6500.2464,N,01433.8520,E,21.7,358.8,200302,02.,E*6A
$GPAPB,A,A,0.2,R,N,,,87.6,M,SIM001,176.5,M,,,*02
$GPGSA,A,3,01,02,03,04,,,,,,,,,2.0,2.0,2.0*34
$GPGSV,3,1,12,06,52,095,,15,51,089,,30,51,150,,25,36,229,*7C
$GPGSV,3,2,12,24,31,050,,22,22,292,,01,20,314,,14,20,320,*70
$GPGSV,3,3,12,05,19,134,,13,18,347,,17,15,180,,10,11,110,*70
$GPGLL,6500.2536,N,01433.8519,E,092053.187,A*36
$GPGGA,092053.19,6500.2536,N,01433.8519,E,1,04,2.0,-0034,M,,,,*39
$GPRMB,A,0.16,R,SIM003,SIM001,6500.0900,N,01433.8589,E,000.2,179.,000.0,V*13
$GPRMC,092053.19,A,6500.2536,N,01433.8519,E,21.7,358.8,200302,02.,E*6F
$GPAPB,A,A,0.2,R,N,,,87.6,M,SIM001,176.5,M,,,*02
$GPGSA,A,3,01,02,03,04,,,,,,,,,2.0,2.0,2.0*34
$GPGSV,3,1,12,06,52,095,,15,51,089,,30,51,150,,25,36,229,*7C
$GPGSV,3,2,12,24,31,050,,22,22,292,,01,20,314,,14,20,320,*70
$GPGSV,3,3,12,05,19,134,,13,18,347,,17,15,180,,10,11,110,*70
$GPGLL,6500.2681,N,01433.8518,E,092055.594,A*38
$GPGGA,092055.59,6500.2681,N,01433.8518,E,1,04,2.0,-0034,M,,,,*35
$GPRMB,A,0.18,R,SIM003,SIM001,6500.0900,N,01433.8589,E,000.2,179.,000.0,V*1D
$GPRMC,092055.59,A,6500.2681,N,01433.8518,E,21.7,358.8,200302,02.,E*63
$GPAPB,A,A,0.2,R,N,,,87.6,M,SIM001,176.6,M,,,*01
$GPGSA,A,3,01,02,03,04,,,,,,,,,2.0,2.0,2.0*34
$GPGSV,3,1,12,06,52,095,,15,51,089,,30,51,150,,25,36,229,*7C
$GPGSV,3,2,12,24,31,050,,22,22,292,,01,20,314,,14,20,320,*70
$GPGSV,3,3,12,05,19,134,,13,18,347,,17,15,180,,10,11,110,*70
$GPGLL,6500.2826,N,01433.8516,E,092058.000,A*30
$GPGGA,092058.00,6500.2826,N,01433.8516,E,1,04,2.0,-0034,M,,,,*39
$GPRMB,A,0.19,R,SIM003,SIM001,6500.0900,N,01433.8589,E,000.2,179.,000.0,V*1C
$GPRMC,092058.00,A,6500.2826,N,01433.8516,E,21.7,358.8,200302,02.,E*6F
$GPAPB,A,A,0.2,R,N,,,87.6,M,SIM001,176.7,M,,,*00
$GPGSA,A,3,01,02,03,04,,,,,,,,,2.0,2.0,2.0*34
$GPGSV,3,1,12,06,52,095,,15,51,089,,30,51,150,,25,36,229,*7C
$GPGSV,3,2,12,24,31,050,,22,22,292,,01,20,314,,14,20,320,*70
$GPGSV,3,3,12,05,19,134,,13,18,347,,17,15,180,,10,11,110,*70
$GPGLL,6500.2898,N,01433.8516,E,092059.188,A*35
$GPGGA,092059.19,6500.2898,N,01433.8516,E,1,04,2.0,-0034,M,,,,*35
$GPRMB,A,0.20,R,SIM003,SIM001,6500.0900,N,01433.8589,E,000.2,179.,000.0,V*16
$GPRMC,092059.19,A,6500.2898,N,01433.8516,E,21.7,358.8,200302,02.,E*63
$GPAPB,A,A,0.2,R,N,,,87.6,M,SIM001,176.7,M,,,*00
$GPGSA,A,3,01,02,03,04,,,,,,,,,2.0,2.0,2.0*34
$GPGSV,3,1,12,06,52,095,,15,51,089,,30,51,150,,25,36,229,*7C
$GPGSV,3,2,12,24,31,050,,22,22,292,,01,20,314,,14,20,320,*70
$GPGSV,3,3,12,05,19,134,,13,18,347,,17,15,180,,10,11,110,*70
$GPGLL,6500.3043,N,01433.8514,E,092101.594,A*3D
$GPGGA,092101.59,6500.3043,N,01433.8514,E,1,04,2.0,-0034,M,,,,*30
$GPRMB,A,0.21,R,SIM003,SIM001,6500.0900,N,01433.8589,E,000.2,179.,000.0,V*17
$GPRMC,092101.59,A,6500.3043,N,01433.8514,E,21.7,358.8,200302,02.,E*66
$GPAPB,A,A,0.2,R,N,,,87.6,M,SIM001,176.7,M,,,*00
$GPGSA,A,3,01,02,03,04,,,,,,,,,2.0,2.0,2.0*34
$GPGSV,3,1,12,06,52,095,,15,51,089,,30,51,150,,25,36,229,*7C
$GPGSV,3,2,12,24,31,050,,22,22,292,,01,20,314,,14,20,320,*70
$GPGSV,3,3,12,05,19,134,,13,18,347,,17,15,180,,10,11,110,*70
$GPGLL,6500.3188,N,01433.8513,E,092104.000,A*31
$GPGGA,092104.00,6500.3188,N,01433.8513,E,1,04,2.0,-0034,M,,,,*38
$GPRMB,A,0.23,R,SIM003,SIM001,6500.0900,N,01433.8589,E,000.2,179.,000.0,V*15
$GPRMC,092104.00,A,6500.3188,N,01433.8513,E,21.7,358.8,200302,02.,E*6E
$GPAPB,A,A,0.2,R,N,,,87.6,M,SIM001,176.8,M,,,*0F
$GPGSA,A,3,01,02,03,04,,,,,,,,,2.0,2.0,2.0*34
$GPGSV,3,1,12,06,52,095,,15,51,089,,30,51,150,,25,36,229,*7C
$GPGSV,3,2,12,24,31,050,,22,22,292,,01,20,314,,14,20,320,*70
$GPGSV,3,3,12,05,19,134,,13,18,347,,17,15,180,,10,11,110,*70
$GPGLL,6500.3260,N,01433.8513,E,092105.188,A*34
$GPGGA,092105.19,6500.3260,N,01433.8513,E,1,04,2.0,-0034,M,,,,*34
$GPRMB,A,0.24,R,SIM003,SIM001,6500.0900,N,01433.8589,E,000.2,179.,000.0,V*12
$GPRMC,092105.19,A,6500.3260,N,01433.8513,E,21.7,358.8,200302,02.,E*62
$GPAPB,A,A,0.2,R,N,,,87.6,M,SIM001,176.8,M,,,*0F
$GPGSA,A,3,01,02,03,04,,,,,,,,,2.0,2.0,2.0*34
$GPGSV,3,1,12,06,52,095,,15,51,089,,30,51,150,,25,36,229,*7C
$GPGSV,3,2,12,24,31,050,,22,22,292,,01,20,314,,14,20,320,*70
$GPGSV,3,3,12,05,19,134,,13,18,347,,17,15,180,,10,11,110,*70
$GPGLL,6500.3405,N,01433.8511,E,092107.594,A*38
$GPGGA,092107.59,6500.3405,N,01433.8511,E,1,04,2.0,-0034,M,,,,*35
$GPRMB,A,0.25,R,SIM003,SIM001,6500.0900,N,01433.8589,E,000.3,179.,000.0,V*12
$GPRMC,092107.59,A,6500.3405,N,01433.8511,E,21.7,358.8,200302,02.,E*63
$GPAPB,A,A,0.3,R,N,,,87.6,M,SIM001,176.8,M,,,*0E
$GPGSA,A,3,01,02,03,04,,,,,,,,,2.0,2.0,2.0*34
$GPGSV,3,1,12,06,52,095,,15,51,089,,30,51,150,,25,36,229,*7C
$GPGSV,3,2,12,24,31,050,,22,22,292,,01,20,314,,14,20,320,*70
$GPGSV,3,3,12,05,19,134,,13,18,347,,17,15,180,,10,11,110,*70
$GPGLL,6500.3550,N,01433.8510,E,092110.000,A*36
$GPGGA,092110.00,6500.3550,N,01433.8510,E,1,04,2.0,-0034,M,,,,*3F
$GPRMB,A,0.26,R,SIM003,SIM001,6500.0900,N,01433.8589,E,000.3,179.,000.0,V*11
$GPRMC,092110.00,A,6500.3550,N,01433.8510,E,21.7,358.8,200302,02.,E*69
$GPAPB,A,A,0.3,R,N,,,87.6,M,SIM001,176.9,M,,,*0F
$GPGSA,A,3,01,02,03,04,,,,,,,,,2.0,2.0,2.0*34
$GPGSV,3,1,12,06,52,095,,15,51,089,,30,51,150,,25,36,229,*7C
$GPGSV,3,2,12,24,31,050,,22,22,292,,01,20,314,,14,20,320,*70
$GPGSV,3,3,12,05,19,134,,13,18,347,,17,15,180,,10,11,110,*70
$GPGLL,6500.3622,N,01433.8509,E,092111.187,A*37
$GPGGA,092111.19,6500.3622,N,01433.8509,E,1,04,2.0,-0034,M,,,,*38
$GPRMB,A,0.27,R,SIM003,SIM001,6500.0900,N,01433.8589,E,000.3,179.,000.0,V*10
$GPRMC,092111.19,A,6500.3622,N,01433.8509,E,21.7,358.8,200302,02.,E*6E
$GPAPB,A,A,0.3,R,N,,,87.6,M,SIM001,176.9,M,,,*0F
$GPGSA,A,3,01,02,03,04,,,,,,,,,2.0,2.0,2.0*34
$GPGSV,3,1,12,06,52,095,,15,51,089,,30,51,150,,25,36,229,*7C
$GPGSV,3,2,12,24,31,050,,22,22,292,,01,20,314,,14,20,320,*70
$GPGSV,3,3,12,05,19,134,,13,18,347,,17,15,180,,10,11,110,*70
$GPGLL,6500.3477,N,01433.8512,E,092113.594,A*3B
$GPGGA,092113.59,6500.3477,N,01433.8512,E,1,04,2.0,-0034,M,,,,*36
$GPRMB,A,0.26,R,SIM003,SIM001,6500.0900,N,01433.8589,E,000.3,179.,000.8,V*19
$GPRMC,092113.59,A,6500.3477,N,01433.8512,E,21.7,177.8,200302,02.,E*6F
$GPAPB,A,A,0.3,R,N,,,87.6,M,SIM001,176.8,M,,,*0E
$GPGSA,A,3,01,02,03,04,,,,,,,,,2.0,2.0,2.0*34
$GPGSV,3,1,12,06,52,095,,15,51,089,,30,51,150,,25,36,229,*7C
$GPGSV,3,2,12,24,31,050,,22,22,292,,01,20,314,,14,20,320,*70
$GPGSV,3,3,12,05,19,134,,13,18,347,,17,15,180,,10,11,110,*70
$GPGLL,6500.3332,N,01433.8514,E,092116.000,A*36
$GPGGA,092116.00,6500.3332,N,01433.8514,E,1,04,2.0,-0034,M,,,,*3F
$GPRMB,A,0.24,R,SIM003,SIM001,6500.0900,N,01433.8589,E,000.2,179.,000.8,V*1A
$GPRMC,092116.00,A,6500.3332,N,01433.8514,E,21.7,177.8,200302,02.,E*66
$GPAPB,A,A,0.2,R,N,,,87.6,M,SIM001,176.8,M,,,*0F
$GPGSA,A,3,01,02,03,04,,,,,,,,,2.0,2.0,2.0*34
$GPGSV,3,1,12,06,52,095,,15,51,089,,30,51,150,,25,36,229,*7C
$GPGSV,3,2,12,24,31,050,,22,22,292,,01,20,314,,14,20,320,*70
$GPGSV,3,3,12,05,19,134,,13,18,347,,17,15,180,,10,11,110,*70
$GPGLL,6500.3260,N,01433.8515,E,092117.188,A*31
$GPGGA,092117.19,6500.3260,N,01433.8515,E,1,04,2.0,-0034,M,,,,*31
$GPRMB,A,0.24,R,SIM003,SIM001,6500.0900,N,01433.8589,E,000.2,179.,000.8,V*1A
$GPRMC,092117.19,A,6500.3260,N,01433.8515,E,21.7,177.8,200302,02.,E*68
$GPAPB,A,A,0.2,R,N,,,87.6,M,SIM001,176.8,M,,,*0F
$GPGSA,A,3,01,02,03,04,,,,,,,,,2.0,2.0,2.0*34
$GPGSV,3,1,12,06,52,095,,15,51,089,,30,51,150,,25,36,229,*7C
$GPGSV,3,2,12,24,31,050,,22,22,292,,01,20,314,,14,20,320,*70
$GPGSV,3,3,12,05,19,134,,13,18,347,,17,15,180,,10,11,110,*70
$GPGLL,6500.3115,N,01433.8517,E,092119.594,A*35
$GPGGA,092119.59,6500.3115,N,01433.8517,E,1,04,2.0,-0034,M,,,,*38
$GPRMB,A,0.22,R,SIM003,SIM001,6500.0900,N,01433.8589,E,000.2,179.,000.8,V*1C
$GPRMC,092119.59,A,6500.3115,N,01433.8517,E,21.7,177.8,200302,02.,E*61
$GPAPB,A,A,0.2,R,N,,,87.6,M,SIM001,176.8,M,,,*0F
$GPGSA,A,3,01,02,03,04,,,,,,,,,2.0,2.0,2.0*34
$GPGSV,3,1,12,06,52,095,,15,51,089,,30,51,150,,25,36,229,*7C
$GPGSV,3,2,12,24,31,050,,22,22,292,,01,20,314,,14,20,320,*70
$GPGSV,3,3,12,05,19,134,,13,18,347,,17,15,180,,10,11,110,*70
$GPGLL,6500.2970,N,01433.8520,E,092122.000,A*3B
$GPGGA,092122.00,6500.2970,N,01433.8520,E,1,04,2.0,-0034,M,,,,*32
$GPRMB,A,0.21,R,SIM003,SIM001,6500.0900,N,01433.8589,E,000.2,179.,000.8,V*1F
$GPRMC,092122.00,A,6500.2970,N,01433.8520,E,21.7,177.8,200302,02.,E*6B
$GPAPB,A,A,0.2,R,N,,,87.6,M,SIM001,176.8,M,,,*0F
$GPGSA,A,3,01,02,03,04,,,,,,,,,2.0,2.0,2.0*34
$GPGSV,3,1,12,06,52,095,,15,51,089,,30,51,150,,25,36,229,*7C
$GPGSV,3,2,12,24,31,050,,22,22,292,,01,20,314,,14,20,320,*70
$GPGSV,3,3,12,05,19,134,,13,18,347,,17,15,180,,10,11,110,*70
$GPGLL,6500.2898,N,01433.8521,E,092123.188,A*3D
$GPGGA,092123.19,6500.2898,N,01433.8521,E,1,04,2.0,-0034,M,,,,*3D
$GPRMB,A,0.20,R,SIM003,SIM001,6500.0900,N,01433.8589,E,000.2,179.,000.8,V*1E
$GPRMC,092123.19,A,6500.2898,N,01433.8521,E,21.7,177.8,200302,02.,E*64
$GPAPB,A,A,0.2,R,N,,,87.6,M,SIM001,176.8,M,,,*0F
$GPGSA,A,3,01,02,03,04,,,,,,,,,2.0,2.0,2.0*34
$GPGSV,3,1,12,06,52,095,,15,51,089,,30,51,150,,25,36,229,*7C
$GPGSV,3,2,12,24,31,050,,22,22,292,,01,20,314,,14,20,320,*70
$GPGSV,3,3,12,05,19,134,,13,18,347,,17,15,180,,10,11,110,*70
$GPGLL,6500.2753,N,01433.8523,E,092125.594,A*38
$GPGGA,092125.59,6500.2753,N,01433.8523,E,1,04,2.0,-0034,M,,,,*35
$GPRMB,A,0.19,R,SIM003,SIM001,6500.0900,N,01433.8589,E,000.2,179.,000.8,V*14
$GPRMC,092125.59,A,6500.2753,N,01433.8523,E,21.7,177.8,200302,02.,E*6C
$GPAPB,A,A,0.2,R,N,,,87.6,M,SIM001,176.7,M,,,*00
$GPGSA,A,3,01,02,03,04,,,,,,,,,2.0,2.0,2.0*34
$GPGSV,3,1,12,06,52,095,,15,51,089,,30,51,150,,25,36,229,*7C
$GPGSV,3,2,12,24,31,050,,22,22,292,,01,20,314,,14,20,320,*70
$GPGSV,3,3,12,05,19,134,,13,18,347,,17,15,180,,10,11,110,*70
$GPGLL,6500.2608,N,01433.8526,E,092128.000,A*37
$GPGGA,092128.00,6500.2608,N,01433.8526,E,1,04,2.0,-0034,M,,,,*3E
$GPRMB,A,0.17,R,SIM003,SIM001,6500.0900,N,01433.8589,E,000.2,179.,000.8,V*1A
$GPRMC,092128.00,A,6500.2608,N,01433.8526,E,21.7,177.8,200302,02.,E*67
$GPAPB,A,A,0.2,R,N,,,87.6,M,SIM001,176.7,M,,,*00
$GPGSA,A,3,01,02,03,04,,,,,,,,,2.0,2.0,2.0*34
$GPGSV,3,1,12,06,52,095,,15,51,089,,30,51,150,,25,36,229,*7C
$GPGSV,3,2,12,24,31,050,,22,22,292,,01,20,314,,14,20,320,*70
$GPGSV,3,3,12,05,19,134,,13,18,347,,17,15,180,,10,11,110,*70
$GPGLL,6500.2536,N,01433.8527,E,092129.188,A*38
$GPGGA,092129.19,6500.2536,N,01433.8527,E,1,04,2.0,-0034,M,,,,*38
$GPRMB,A,0.16,R,SIM003,SIM001,6500.0900,N,01433.8589,E,000.2,179.,000.8,V*1B
$GPRMC,092129.19,A,6500.2536,N,01433.8527,E,21.7,177.8,200302,02.,E*61
$GPAPB,A,A,0.2,R,N,,,87.6,M,SIM001,176.7,M,,,*00
$GPGSA,A,3,01,02,03,04,,,,,,,,,2.0,2.0,2.0*34
$GPGSV,3,1,12,06,52,095,,15,51,089,,30,51,150,,25,36,229,*7C
$GPGSV,3,2,12,24,31,050,,22,22,292,,01,20,314,,14,20,320,*70
$GPGSV,3,3,12,05,19,134,,13,18,347,,17,15,180,,10,11,110,*70
$GPGLL,6500.2391,N,01433.8529,E,092131.594,A*3D
$GPGGA,092131.59,6500.2391,N,01433.8529,E,1,04,2.0,-0034,M,,,,*30
$GPRMB,A,0.15,R,SIM003,SIM001,6500.0900,N,01433.8589,E,000.1,179.,000.8,V*1B
$GPRMC,092131.59,A,6500.2391,N,01433.8529,E,21.7,177.8,200302,02.,E*69
$GPAPB,A,A,0.1,R,N,,,87.6,M,SIM001,176.6,M,,,*02
$GPGSA,A,3,01,02,03,04,,,,,,,,,2.0,2.0,2.0*34
$GPGSV,3,1,12,06,52,095,,15,51,089,,30,51,150,,25,36,229,*7C
$GPGSV,3,2,12,24,31,050,,22,22,292,,01,20,314,,14,20,320,*70
$GPGSV,3,3,12,05,19,134,,13,18,347,,17,15,180,,10,11,110,*70
$GPGLL,6500.2246,N,01433.8532,E,092134.000,A*31
$GPGGA,092134.00,6500.2246,N,01433.8532,E,1,04,2.0,-0034,M,,,,*38
$GPRMB,A,0.13,R,SIM003,SIM001,6500.0900,N,01433.8589,E,000.1,179.,000.8,V*1D
$GPRMC,092134.00,A,6500.2246,N,01433.8532,E,21.7,177.8,200302,02.,E*61
$GPAPB,A,A,0.1,R,N,,,87.6,M,SIM001,176.5,M,,,*01
$GPGSA,A,3,01,02,03,04,,,,,,,,,2.0,2.0,2.0*34
$GPGSV,3,1,12,06,52,095,,15,51,089,,30,51,150,,25,36,229,*7C
$GPGSV,3,2,12,24,31,050,,22,22,292,,01,20,314,,14,20,320,*70
$GPGSV,3,3,12,05,19,134,,13,18,347,,17,15,180,,10,11,110,*70
$GPGLL,6500.2161,N,01433.8533,E,092135.406,A*35
$GPGGA,092135.41,6500.2161,N,01433.8533,E,1,04,2.0,-0034,M,,,,*3B
$GPRMB,A,0.13,R,SIM003,SIM001,6500.0900,N,01433.8589,E,000.1,179.,000.8,V*1D
$GPRMC,092135.41,A,6500.2161,N,01433.8533,E,21.7,177.8,200302,02.,E*62
$GPAPB,A,A,0.1,R,N,,,87.6,M,SIM001,176.5,M,,,*01
$GPGSA,A,3,01,02,03,04,,,,,,,,,2.0,2.0,2.0*34
$GPGSV,3,1,12,06,52,095,,15,51,089,,30,51,150,,25,36,229,*7C
$GPGSV,3,2,12,24,31,050,,22,22,292,,01,20,314,,14,20,320,*70
$GPGSV,3,3,12,05,19,134,,13,18,347,,17,15,180,,10,11,110,*70
$GPGLL,6500.2018,N,01433.8535,E,092137.781,A*32
$GPGGA,092137.78,6500.2018,N,01433.8535,E,1,04,2.0,-0034,M,,,,*3A
$GPRMB,A,0.11,R,SIM003,SIM001,6500.0900,N,01433.8589,E,000.1,179.,000.8,V*1F
$GPRMC,092137.78,A,6500.2018,N,01433.8535,E,21.7,177.8,200302,02.,E*63
$GPAPB,A,A,0.1,R,N,,,87.6,M,SIM001,176.4,M,,,*00
$GPGSA,A,3,01,02,03,04,,,,,,,,,2.0,2.0,2.0*34
$GPGSV,3,1,12,06,52,095,,15,51,089,,30,51,150,,25,36,229,*7C
$GPGSV,3,2,12,24,31,050,,22,22,292,,01,20,314,,14,20,320,*70
$GPGSV,3,3,12,05,19,134,,13,18,347,,17,15,180,,10,11,110,*70
$GPGLL,6500.1873,N,01433.8538,E,092140.187,A*39
$GPGGA,092140.19,6500.1873,N,01433.8538,E,1,04,2.0,-0034,M,,,,*36
$GPRMB,A,0.10,R,SIM003,SIM001,6500.0900,N,01433.8589,E,000.1,179.,000.8,V*1E
$GPRMC,092140.19,A,6500.1873,N,01433.8538,E,21.7,177.8,200302,02.,E*6F
$GPAPB,A,A,0.1,R,N,,,87.6,M,SIM001,176.3,M,,,*07
$GPGSA,A,3,01,02,03,04,,,,,,,,,2.0,2.0,2.0*34
$GPGSV,3,1,12,06,52,095,,15,51,089,,30,51,150,,25,36,229,*7C
$GPGSV,3,2,12,24,31,050,,22,22,292,,01,20,314,,14,20,320,*70
$GPGSV,3,3,12,05,19,134,,13,18,347,,17,15,180,,10,11,110,*70
$GPGLL,6500.1800,N,01433.8539,E,092141.406,A*31
$GPGGA,092141.41,6500.1800,N,01433.8539,E,1,04,2.0,-0034,M,,,,*3F
$GPRMB,A,0.09,R,SIM003,SIM001,6500.0900,N,01433.8589,E,000.1,179.,000.8,V*16
$GPRMC,092141.41,A,6500.1800,N,01433.8539,E,21.7,177.8,200302,02.,E*66
$GPAPB,A,A,0.1,R,N,,,87.6,M,SIM001,176.2,M,,,*06
$GPGSA,A,3,01,02,03,04,,,,,,,,,2.0,2.0,2.0*34
$GPGSV,3,1,12,06,52,095,,15,51,089,,30,51,150,,25,36,229,*7C
$GPGSV,3,2,12,24,31,050,,22,22,292,,01,20,314,,14,20,320,*70
$GPGSV,3,3,12,05,19,134,,13,18,347,,17,15,180,,10,11,110,*70
$GPGLL,6500.1656,N,01433.8541,E,092143.781,A*3D
$GPGGA,092143.78,6500.1656,N,01433.8541,E,1,04,2.0,-0034,M,,,,*35
$GPRMB,A,0.08,R,SIM003,SIM001,6500.0900,N,01433.8589,E,000.1,178.,000.8,V*16
$GPRMC,092143.78,A,6500.1656,N,01433.8541,E,21.7,177.8,200302,02.,E*6C
$GPAPB,A,A,0.1,R,N,,,87.6,M,SIM001,176.0,M,,,*04
$GPGSA,A,3,01,02,03,04,,,,,,,,,2.0,2.0,2.0*34
$GPGSV,3,1,12,06,52,095,,15,51,089,,30,51,150,,25,36,229,*7C
$GPGSV,3,2,12,24,31,050,,22,22,292,,01,20,314,,14,20,320,*70
$GPGSV,3,3,12,05,19,134,,13,18,347,,17,15,180,,10,11,110,*70
$GPGLL,6500.1511,N,01433.8544,E,092146.188,A*32
$GPGGA,092146.19,6500.1511,N,01433.8544,E,1,04,2.0,-0034,M,,,,*32
$GPRMB,A,0.06,R,SIM003,SIM001,6500.0900,N,01433.8589,E,000.1,178.,000.8,V*18
$GPRMC,092146.19,A,6500.1511,N,01433.8544,E,21.7,177.8,200302,02.,E*6B
$GPAPB,A,A,0.1,R,N,,,87.6,M,SIM001,175.8,M,,,*0F
$GPGSA,A,3,01,02,03,04,,,,,,,,,2.0,2.0,2.0*34
$GPGSV,3,1,12,06,52,095,,15,51,089,,30,51,150,,25,36,229,*7C
$GPGSV,3,2,12,24,31,050,,22,22,292,,01,20,314,,14,20,320,*70
$GPGSV,3,3,12,05,19,134,,13,18,347,,17,15,180,,10,11,110,*70
$GPGLL,6500.1438,N,01433.8545,E,092147.406,A*3B
$GPGGA,092147.41,6500.1438,N,01433.8545,E,1,04,2.0,-0034,M,,,,*35
$GPRMB,A,0.05,R,SIM003,SIM001,6500.0900,N,01433.8589,E,000.1,178.,000.8,V*1B
$GPRMC,092147.41,A,6500.1438,N,01433.8545,E,21.7,177.8,200302,02.,E*6C
$GPAPB,A,A,0.1,R,N,,,87.6,M,SIM001,175.6,M,,,*01
$GPGSA,A,3,01,02,03,04,,,,,,,,,2.0,2.0,2.0*34
$GPGSV,3,1,12,06,52,095,,15,51,089,,30,51,150,,25,36,229,*7C
$GPGSV,3,2,12,24,31,050,,22,22,292,,01,20,314,,14,20,320,*70
$GPGSV,3,3,12,05,19,134,,13,18,347,,17,15,180,,10,11,110,*70
$GPGLL,6500.1295,N,01433.8547,E,092149.781,A*3A
$GPGGA,092149.78,6500.1295,N,01433.8547,E,1,04,2.0,-0034,M,,,,*32
$GPRMB,A,0.04,R,SIM003,SIM001,6500.0900,N,01433.8589,E,000.0,177.,001.1,V*1C
$GPRMC,092149.78,A,6500.1295,N,01433.8547,E,21.7,177.8,200302,02.,E*6B
$GPAPB,A,A,0.0,R,N,,,87.6,M,SIM001,175.0,M,,,*06
$GPGSA,A,3,01,02,03,04,,,,,,,,,2.0,2.0,2.0*34
$GPGSV,3,1,12,06,52,095,,15,51,089,,30,51,150,,25,36,229,*7C
$GPGSV,3,2,12,24,31,050,,22,22,292,,01,20,314,,14,20,320,*70
$GPGSV,3,3,12,05,19,134,,13,18,347,,17,15,180,,10,11,110,*70
$GPGLL,6500.1150,N,01433.8550,E,092152.188,A*33
$GPGGA,092152.19,6500.1150,N,01433.8550,E,1,04,2.0,-0034,M,,,,*33
$GPRMB,A,0.02,R,SIM003,SIM001,6500.0900,N,01433.8589,E,000.0,176.,002.1,A*0F
$GPRMC,092152.19,A,6500.1150,N,01433.8550,E,21.7,177.8,200302,02.,E*6A
$GPAPB,A,A,0.0,R,N,A,,87.6,M,SIM001,173.7,M,,,*46
$GPGSA,A,3,01,02,03,04,,,,,,,,,2.0,2.0,2.0*34
$GPGSV,3,1,12,06,52,095,,15,51,089,,30,51,150,,25,36,229,*7C
$GPGSV,3,2,12,24,31,050,,22,22,292,,01,20,314,,14,20,320,*70
$GPGSV,3,3,12,05,19,134,,13,18,347,,17,15,180,,10,11,110,*70
$GPGLL,6500.1076,N,01433.8551,E,092153.406,A*35
$GPGGA,092153.41,6500.1076,N,01433.8551,E,1,04,2.0,-0034,M,,,,*3B
$GPRMB,A,0.02,R,SIM003,SIM001,6500.0900,N,01433.8589,E,000.0,175.,003.2,A*0E
$GPRMC,092153.41,A,6500.1076,N,01433.8551,E,21.7,177.8,200302,02.,E*62
$GPAPB,A,A,0.0,R,N,A,,87.6,M,SIM001,172.3,M,,,*43
$GPGSA,A,3,01,02,03,04,,,,,,,,,2.0,2.0,2.0*34
$GPGSV,3,1,12,06,52,095,,15,51,089,,30,51,150,,25,36,229,*7C
$GPGSV,3,2,12,24,31,050,,22,22,292,,01,20,314,,14,20,320,*70
$GPGSV,3,3,12,05,19,134,,13,18,347,,17,15,180,,10,11,110,*70
$GPGLL,6500.0931,N,01433.8553,E,092155.812,A*33
$GPGGA,092155.81,6500.0931,N,01433.8553,E,1,04,2.0,-0034,M,,,,*38
$GPRMB,A,0.00,R,SIM003,SIM001,6500.0900,N,01433.8589,E,000.0,154.,000.0,A*0E
$GPRMC,092155.81,A,6500.0931,N,01433.8553,E,21.7,177.8,200302,02.,E*61
$GPAPB,A,A,0.0,R,N,A,,87.6,M,SIM001,151.1,M,,,*40
$GPGSA,A,3,01,02,03,04,,,,,,,,,2.0,2.0,2.0*34
$GPGSV,3,1,12,06,52,095,,15,51,089,,30,51,150,,25,36,229,*7C
$GPGSV,3,2,12,24,31,050,,22,22,292,,01,20,314,,14,20,320,*70
$GPGSV,3,3,12,05,19,134,,13,18,347,,17,15,180,,10,11,110,*70
$GPGLL,6500.0788,N,01433.8555,E,092158.187,A*31
$GPGGA,092158.19,6500.0788,N,01433.8555,E,1,04,2.0,-0034,M,,,,*3E
$GPRMB,A,0.01,L,SIM003,SIM001,6500.0900,N,01433.8589,E,000.0,007.,000.0,A*16
$GPRMC,092158.19,A,6500.0788,N,01433.8555,E,21.7,177.8,200302,02.,E*67
$GPAPB,A,A,0.0,L,N,A,,87.6,M,SIM001,4.8,M,,,*56
$GPGSA,A,3,01,02,03,04,,,,,,,,,2.0,2.0,2.0*34
$GPGSV,3,1,12,06,52,095,,15,51,089,,30,51,150,,25,36,229,*7C
$GPGSV,3,2,12,24,31,050,,22,22,292,,01,20,314,,14,20,320,*70
$GPGSV,3,3,12,05,19,134,,13,18,347,,17,15,180,,10,11,110,*70
$GPGLL,6500.0714,N,01433.8557,E,092159.406,A*3B
$GPGGA,092159.41,6500.0714,N,01433.8557,E,1,04,2.0,-0034,M,,,,*35
$GPRMB,A,0.02,L,SIM003,SIM001,6500.0900,N,01433.8589,E,000.0,004.,000.0,A*16
$GPRMC,092159.41,A,6500.0714,N,01433.8557,E,21.7,177.8,200302,02.,E*6C
$GPAPB,A,A,0.0,L,N,A,,87.6,M,SIM001,1.8,M,,,*53
$GPGSA,A,3,01,02,03,04,,,,,,,,,2.0,2.0,2.0*34
$GPGSV,3,1,12,06,52,095,,15,51,089,,30,51,150,,25,36,229,*7C
$GPGSV,3,2,12,24,31,050,,22,22,292,,01,20,314,,14,20,320,*70
$GPGSV,3,3,12,05,19,134,,13,18,347,,17,15,180,,10,11,110,*70
$GPGLL,6500.0569,N,01433.8559,E,092201.813,A*3B
$GPGGA,092201.81,6500.0569,N,01433.8559,E,1,04,2.0,-0034,M,,,,*31
$GPRMB,A,0.03,L,SIM003,SIM001,6500.0900,N,01433.8589,E,000.0,002.,000.0,V*06
$GPRMC,092201.81,A,6500.0569,N,01433.8559,E,21.7,177.8,200302,02.,E*68
$GPAPB,A,A,0.0,L,N,,,87.6,M,SIM001,359.8,M,,,*1C
$GPGSA,A,3,01,02,03,04,,,,,,,,,2.0,2.0,2.0*34
$GPGSV,3,1,12,06,52,095,,15,51,089,,30,51,150,,25,36,229,*7C
$GPGSV,3,2,12,24,31,050,,22,22,292,,01,20,314,,14,20,320,*70
$GPGSV,3,3,12,05,19,134,,13,18,347,,17,15,180,,10,11,110,*70
$GPGLL,6500.0426,N,01433.8561,E,092204.188,A*34
$GPGGA,092204.19,6500.0426,N,01433.8561,E,1,04,2.0,-0034,M,,,,*34
$GPRMB,A,0.05,L,SIM003,SIM001,6500.0900,N,01433.8589,E,000.0,001.,000.0,V*03
$GPRMC,092204.19,A,6500.0426,N,01433.8561,E,21.7,177.8,200302,02.,E*6D
$GPAPB,A,A,0.0,L,N,,,87.6,M,SIM001,359.0,M,,,*14
$GPGSA,A,3,01,02,03,04,,,,,,,,,2.0,2.0,2.0*34
$GPGSV,3,1,12,06,52,095,,15,51,089,,30,51,150,,25,36,229,*7C
$GPGSV,3,2,12,24,31,050,,22,22,292,,01,20,314,,14,20,320,*70
$GPGSV,3,3,12,05,19,134,,13,18,347,,17,15,180,,10,11,110,*70
$GPGLL,6500.0352,N,01433.8563,E,092205.406,A*30
$GPGGA,092205.41,6500.0352,N,01433.8563,E,1,04,2.0,-0034,M,,,,*3E
$GPRMB,A,0.05,L,SIM003,SIM001,6500.0900,N,01433.8589,E,000.1,001.,000.0,V*02
$GPRMC,092205.41,A,6500.0352,N,01433.8563,E,21.7,177.8,200302,02.,E*67
$GPAPB,A,A,0.1,L,N,,,87.6,M,SIM001,358.7,M,,,*13
$GPGSA,A,3,01,02,03,04,,,,,,,,,2.0,2.0,2.0*34
$GPGSV,3,1,12,06,52,095,,15,51,089,,30,51,150,,25,36,229,*7C
$GPGSV,3,2,12,24,31,050,,22,22,292,,01,20,314,,14,20,320,*70
$GPGSV,3,3,12,05,19,134,,13,18,347,,17,15,180,,10,11,110,*70
$GPGLL,6500.0207,N,01433.8565,E,092207.813,A*3D
$GPGGA,092207.81,6500.0207,N,01433.8565,E,1,04,2.0,-0034,M,,,,*37
$GPRMB,A,0.07,L,SIM003,SIM001,6500.0900,N,01433.8589,E,000.1,001.,000.0,V*00
$GPRMC,092207.81,A,6500.0207,N,01433.8565,E,21.7,177.8,200302,02.,E*6E
$GPAPB,A,A,0.1,L,N,,,87.6,M,SIM001,358.4,M,,,*10
$GPGSA,A,3,01,02,03,04,,,,,,,,,2.0,2.0,2.0*34
$GPGSV,3,1,12,06,52,095,,15,51,089,,30,51,150,,25,36,229,*7C
$GPGSV,3,2,12,24,31,050,,22,22,292,,01,20,314,,14,20,320,*70
$GPGSV,3,3,12,05,19,134,,13,18,347,,17,15,180,,10,11,110,*70
$GPGLL,6500.0062,N,01433.8567,E,092210.219,A*38
$GPGGA,092210.22,6500.0062,N,01433.8567,E,1,04,2.0,-0034,M,,,,*3B
$GPRMB,A,0.08,L,SIM003,SIM001,6500.0900,N,01433.8589,E,000.1,001.,000.0,V*0F
$GPRMC,092210.22,A,6500.0062,N,01433.8567,E,21.7,177.8,200302,02.,E*62
$GPAPB,A,A,0.1,L,N,,,87.6,M,SIM001,358.2,M,,,*16
$GPGSA,A,3,01,02,03,04,,,,,,,,,2.0,2.0,2.0*34
$GPGSV,3,1,12,06,52,095,,15,51,089,,30,51,150,,25,36,229,*7C
$GPGSV,3,2,12,24,31,050,,22,22,292,,01,20,314,,14,20,320,*70
$GPGSV,3,3,12,05,19,134,,13,18,347,,17,15,180,,10,11,110,*70
$GPGLL,6459.9991,N,01433.8568,E,092211.406,A*3F
$GPGGA,092211.41,6459.9991,N,01433.8568,E,1,04,2.0,-0034,M,,,,*31
$GPRMB,A,0.09,L,SIM003,SIM001,6500.0900,N,01433.8589,E,000.1,001.,000.0,V*0E
$GPRMC,092211.41,A,6459.9991,N,01433.8568,E,21.7,177.8,200302,02.,E*68
$GPAPB,A,A,0.1,L,N,,,87.6,M,SIM001,358.1,M,,,*15
$GPGSA,A,3,01,02,03,04,,,,,,,,,2.0,2.0,2.0*34
$GPGSV,3,1,12,06,52,095,,15,51,089,,30,51,150,,25,36,229,*7C
$GPGSV,3,2,12,24,31,050,,22,22,292,,01,20,314,,14,20,320,*70
$GPGSV,3,3,12,05,19,134,,13,18,347,,17,15,180,,10,11,110,*70
$GPGLL,6459.9846,N,01433.8571,E,092213.813,A*36
$GPGGA,092213.81,6459.9846,N,01433.8571,E,1,04,2.0,-0034,M,,,,*3C
$GPRMB,A,0.11,L,SIM003,SIM001,6500.0900,N,01433.8589,E,000.1,00..,000.0,V*18
$GPRMC,092213.81,A,6459.9846,N,01433.8571,E,21.7,177.8,200302,02.,E*65
$GPAPB,A,A,0.1,L,N,,,87.6,M,SIM001,358.0,M,,,*14
$GPGSA,A,3,01,02,03,04,,,,,,,,,2.0,2.0,2.0*34
$GPGSV,3,1,12,06,52,095,,15,51,089,,30,51,150,,25,36,229,*7C
$GPGSV,3,2,12,24,31,050,,22,22,292,,01,20,314,,14,20,320,*70
$GPGSV,3,3,12,05,19,134,,13,18,347,,17,15,180,,10,11,110,*70
$GPGLL,6459.9702,N,01433.8573,E,092216.187,A*3A
$GPGGA,092216.19,6459.9702,N,01433.8573,E,1,04,2.0,-0034,M,,,,*35
$GPRMB,A,0.12,L,SIM003,SIM001,6500.0900,N,01433.8589,E,000.1,00..,000.0,V*1B
$GPRMC,092216.19,A,6459.9702,N,01433.8573,E,21.7,177.8,200302,02.,E*6C
$GPAPB,A,A,0.1,L,N,,,87.6,M,SIM001,357.9,M,,,*12
$GPGSA,A,3,01,02,03,04,,,,,,,,,2.0,2.0,2.0*34
$GPGSV,3,1,12,06,52,095,,15,51,089,,30,51,150,,25,36,229,*7C
$GPGSV,3,2,12,24,31,050,,22,22,292,,01,20,314,,14,20,320,*70
$GPGSV,3,3,12,05,19,134,,13,18,347,,17,15,180,,10,11,110,*70
$GPGLL,6459.9629,N,01433.8574,E,092217.406,A*38
$GPGGA,092217.41,6459.9629,N,01433.8574,E,1,04,2.0,-0034,M,,,,*36
$GPRMB,A,0.13,L,SIM003,SIM001,6500.0900,N,01433.8589,E,000.1,00..,000.0,V*1A
$GPRMC,092217.41,A,6459.9629,N,01433.8574,E,21.7,177.8,200302,02.,E*6F
$GPAPB,A,A,0.1,L,N,,,87.6,M,SIM001,357.9,M,,,*12
$GPGSA,A,3,01,02,03,04,,,,,,,,,2.0,2.0,2.0*34
$GPGSV,3,1,12,06,52,095,,15,51,089,,30,51,150,,25,36,229,*7C
$GPGSV,3,2,12,24,31,050,,22,22,292,,01,20,314,,14,20,320,*70
$GPGSV,3,3,12,05,19,134,,13,18,347,,17,15,180,,10,11,110,*70
$GPGLL,6459.9484,N,01433.8577,E,092219.812,A*39
$GPGGA,092219.81,6459.9484,N,01433.8577,E,1,04,2.0,-0034,M,,,,*32
$GPRMB,A,0.14,L,SIM003,SIM001,6500.0900,N,01433.8589,E,000.1,00..,000.0,V*1D
$GPRMC,092219.81,A,6459.9484,N,01433.8577,E,21.7,177.8,200302,02.,E*6B
$GPAPB,A,A,0.1,L,N,,,87.6,M,SIM001,357.8,M,,,*13
$GPGSA,A,3,01,02,03,04,,,,,,,,,2.0,2.0,2.0*34
$GPGSV,3,1,12,06,52,095,,15,51,089,,30,51,150,,25,36,229,*7C
$GPGSV,3,2,12,24,31,050,,22,22,292,,01,20,314,,14,20,320,*70
$GPGSV,3,3,12,05,19,134,,13,18,347,,17,15,180,,10,11,110,*70
$GPGLL,6459.9341,N,01433.8579,E,092222.188,A*3B
$GPGGA,092222.19,6459.9341,N,01433.8579,E,1,04,2.0,-0034,M,,,,*3B
$GPRMB,A,0.16,L,SIM003,SIM001,6500.0900,N,01433.8589,E,000.2,00..,000.0,V*1C
$GPRMC,092222.19,A,6459.9341,N,01433.8579,E,21.7,177.8,200302,02.,E*62
$GPAPB,A,A,0.2,L,N,,,87.6,M,SIM001,357.7,M,,,*1F
$GPGSA,A,3,01,02,03,04,,,,,,,,,2.0,2.0,2.0*34
$GPGSV,3,1,12,06,52,095,,15,51,089,,30,51,150,,25,36,229,*7C
$GPGSV,3,2,12,24,31,050,,22,22,292,,01,20,314,,14,20,320,*70
$GPGSV,3,3,12,05,19,134,,13,18,347,,17,15,180,,10,11,110,*70
$GPGLL,6459.9267,N,01433.8580,E,092223.406,A*3A
$GPGGA,092223.41,6459.9267,N,01433.8580,E,1,04,2.0,-0034,M,,,,*34
$GPRMB,A,0.16,L,SIM003,SIM001,6500.0900,N,01433.8589,E,000.2,00..,000.0,V*1C
$GPRMC,092223.41,A,6459.9267,N,01433.8580,E,21.7,177.8,200302,02.,E*6D
$GPAPB,A,A,0.2,L,N,,,87.6,M,SIM001,357.7,M,,,*1F
$GPGSA,A,3,01,02,03,04,,,,,,,,,2.0,2.0,2.0*34
$GPGSV,3,1,12,06,51,094,,15,51,087,,30,50,150,,25,36,229,*71
$GPGSV,3,2,12,24,31,050,,22,23,292,,01,20,313,,14,19,319,*76
$GPGSV,3,3,12,05,18,134,,13,18,346,,17,16,179,,10,12,109,*7E
$GPGLL,6459.9122,N,01433.8583,E,092225.812,A*34
$GPGGA,092225.81,6459.9122,N,01433.8583,E,1,04,2.0,-0034,M,,,,*3F
$GPRMB,A,0.18,L,SIM003,SIM001,6500.0900,N,01433.8589,E,000.2,000.,000.0,V*0C
$GPRMC,092225.81,A,6459.9122,N,01433.8583,E,21.7,177.8,200302,02.,E*66
$GPAPB,A,A,0.2,L,N,,,87.6,M,SIM001,357.7,M,,,*1F
$GPGSA,A,3,01,02,03,04,,,,,,,,,2.0,2.0,2.0*34
$GPGSV,3,1,12,06,51,094,,15,51,087,,30,50,150,,25,36,229,*71
$GPGSV,3,2,12,24,31,050,,22,23,292,,01,20,313,,14,19,319,*76
$GPGSV,3,3,12,05,18,134,,13,18,346,,17,16,179,,10,12,109,*7E
$GPGLL,6459.8979,N,01433.8585,E,092228.188,A*32
$GPGGA,092228.19,6459.8979,N,01433.8585,E,1,04,2.0,-0034,M,,,,*32
$GPRMB,A,0.19,L,SIM003,SIM001,6500.0900,N,01433.8589,E,000.2,000.,000.0,V*0D
$GPRMC,092228.19,A,6459.8979,N,01433.8585,E,21.7,177.8,200302,02.,E*6B
$GPAPB,A,A,0.2,L,N,,,87.6,M,SIM001,357.6,M,,,*1E
$GPGSA,A,3,01,02,03,04,,,,,,,,,2.0,2.0,2.0*34
$GPGSV,3,1,12,06,51,094,,15,51,087,,30,50,150,,25,36,229,*71
$GPGSV,3,2,12,24,31,050,,22,23,292,,01,20,313,,14,19,319,*76
$GPGSV,3,3,12,05,18,134,,13,18,346,,17,16,179,,10,12,109,*7E
$GPGLL,6459.8905,N,01433.8586,E,092229.406,A*38
$GPGGA,092229.41,6459.8905,N,01433.8586,E,1,04,2.0,-0034,M,,,,*36
$GPRMB,A,0.20,L,SIM003,SIM001,6500.0900,N,01433.8589,E,000.2,00..,000.0,V*19
$GPRMC,092229.41,A,6459.8905,N,01433.8586,E,21.7,177.8,200302,02.,E*6F
$GPAPB,A,A,0.2,L,N,,,87.6,M,SIM001,357.6,M,,,*1E
$GPGSA,A,3,01,02,03,04,,,,,,,,,2.0,2.0,2.0*34
$GPGSV,3,1,12,06,51,094,,15,51,087,,30,50,150,,25,36,229,*71
$GPGSV,3,2,12,24,31,050,,22,23,292,,01,20,313,,14,19,319,*76
$GPGSV,3,3,12,05,18,134,,13,18,346,,17,16,179,,10,12,109,*7E
$GPGLL,6459.8907,N,01433.8587,E,092231.812,A*3B
$GPGGA,092231.81,6459.8907,N,01433.8587,E,1,04,2.0,-0034,M,,,,*30
$GPRMB,A,0.00,R,SIM001,SIM002,6502.6970,N,01433.8589,E,002.8,00..,021.7,V*0B
$GPRMC,092231.81,A,6459.8907,N,01433.8587,E,21.7,358.5,200302,02.,E*6B
$GPAPB,A,A,0.0,R,N,,,357.6,M,SIM002,357.6,M,,,*3F
$GPGSA,A,3,01,02,03,04,,,,,,,,,2.0,2.0,2.0*34
$GPGSV,3,1,12,06,51,094,,15,51,087,,30,50,150,,25,36,229,*71
$GPGSV,3,2,12,24,31,050,,22,23,292,,01,20,313,,14,19,319,*76
$GPGSV,3,3,12,05,18,134,,13,18,346,,17,16,179,,10,12,109,*7E
$GPGLL,6459.9050,N,01433.8585,E,092234.188,A*3C
$GPGGA,092234.19,6459.9050,N,01433.8585,E,1,04,2.0,-0034,M,,,,*3C
$GPRMB,A,0.00,R,SIM001,SIM002,6502.6970,N,01433.8589,E,002.8,00..,021.7,V*0B
$GPRMC,092234.19,A,6459.9050,N,01433.8585,E,21.7,358.5,200302,02.,E*67
$GPAPB,A,A,0.0,R,N,,,357.6,M,SIM002,357.6,M,,,*3F
$GPGSA,A,3,01,02,03,04,,,,,,,,,2.0,2.0,2.0*34
$GPGSV,3,1,12,06,51,094,,15,51,087,,30,50,150,,25,36,229,*71
$GPGSV,3,2,12,24,31,050,,22,23,292,,01,20,313,,14,19,319,*76
$GPGSV,3,3,12,05,18,134,,13,18,346,,17,16,179,,10,12,109,*7E
$GPGLL,6459.9124,N,01433.8584,E,092235.406,A*3D
$GPGGA,092235.41,6459.9124,N,01433.8584,E,1,04,2.0,-0034,M,,,,*33
$GPRMB,A,0.00,R,SIM001,SIM002,6502.6970,N,01433.8589,E,002.8,00..,021.7,V*0B
$GPRMC,092235.41,A,6459.9124,N,01433.8584,E,21.7,358.5,200302,02.,E*68
$GPAPB,A,A,0.0,R,N,,,357.6,M,SIM002,357.6,M,,,*3F
$GPGSA,A,3,01,02,03,04,,,,,,,,,2.0,2.0,2.0*34
$GPGSV,3,1,12,06,51,094,,15,51,087,,30,50,150,,25,36,229,*71
$GPGSV,3,2,12,24,31,050,,22,23,292,,01,20,313,,14,19,319,*76
$GPGSV,3,3,12,05,18,134,,13,18,346,,17,16,179,,10,12,109,*7E
$GPGLL,6459.9269,N,01433.8583,E,092237.813,A*3A
$GPGGA,092237.81,6459.9269,N,01433.8583,E,1,04,2.0,-0034,M,,,,*30
$GPRMB,A,0.00,R,SIM001,SIM002,6502.6970,N,01433.8589,E,002.8,000.,021.7,V*15
$GPRMC,092237.81,A,6459.9269,N,01433.8583,E,21.7,358.5,200302,02.,E*6B
$GPAPB,A,A,0.0,R,N,,,357.6,M,SIM002,357.6,M,,,*3F
$GPGSA,A,3,01,02,03,04,,,,,,,,,2.0,2.0,2.0*34
$GPGSV,3,1,12,06,51,094,,15,51,087,,30,50,150,,25,36,229,*71
$GPGSV,3,2,12,24,31,050,,22,23,292,,01,20,313,,14,19,319,*76
$GPGSV,3,3,12,05,18,134,,13,18,346,,17,16,179,,10,12,109,*7E
$GPGLL,6459.9412,N,01433.8581,E,092240.187,A*36
$GPGGA,092240.19,6459.9412,N,01433.8581,E,1,04,2.0,-0034,M,,,,*39
$GPRMB,A,0.00,R,SIM001,SIM002,6502.6970,N,01433.8589,E,002.8,000.,021.7,V*15
$GPRMC,092240.19,A,6459.9412,N,01433.8581,E,21.7,358.5,200302,02.,E*62
$GPAPB,A,A,0.0,R,N,,,357.6,M,SIM002,357.6,M,,,*3F
$GPGSA,A,3,01,02,03,04,,,,,,,,,2.0,2.0,2.0*34
$GPGSV,3,1,12,06,51,094,,15,51,087,,30,50,150,,25,36,229,*71
$GPGSV,3,2,12,24,31,050,,22,23,292,,01,20,313,,14,19,319,*76
$GPGSV,3,3,12,05,18,134,,13,18,346,,17,16,179,,10,12,109,*7E
$GPGLL,6459.9486,N,01433.8580,E,092241.406,A*37
$GPGGA,092241.41,6459.9486,N,01433.8580,E,1,04,2.0,-0034,M,,,,*39
$GPRMB,A,0.00,R,SIM001,SIM002,6502.6970,N,01433.8589,E,002.7,000.,021.7,V*1A
$GPRMC,092241.41,A,6459.9486,N,01433.8580,E,21.7,358.5,200302,02.,E*62
$GPAPB,A,A,0.0,R,N,,,357.6,M,SIM002,357.6,M,,,*3F
$GPGSA,A,3,01,02,03,04,,,,,,,,,2.0,2.0,2.0*34
$GPGSV,3,1,12,06,51,094,,15,51,087,,30,50,150,,25,36,229,*71
$GPGSV,3,2,12,24,31,050,,22,23,292,,01,20,313,,14,19,319,*76
$GPGSV,3,3,12,05,18,134,,13,18,346,,17,16,179,,10,12,109,*7E
$GPGLL,6459.9631,N,01433.8579,E,092243.812,A*34
$GPGGA,092243.81,6459.9631,N,01433.8579,E,1,04,2.0,-0034,M,,,,*3F
$GPRMB,A,0.00,R,SIM001,SIM002,6502.6970,N,01433.8589,E,002.7,000.,021.7,V*1A
$GPRMC,092243.81,A,6459.9631,N,01433.8579,E,21.7,358.5,200302,02.,E*64
$GPAPB,A,A,0.0,R,N,,,357.6,M,SIM002,357.6,M,,,*3F
$GPGSA,A,3,01,02,03,04,,,,,,,,,2.0,2.0,2.0*34
$GPGSV,3,1,12,06,51,094,,15,51,087,,30,50,150,,25,36,229,*71
$GPGSV,3,2,12,24,31,050,,22,23,292,,01,20,313,,14,19,319,*76
$GPGSV,3,3,12,05,18,134,,13,18,346,,17,16,179,,10,12,109,*7E
$GPGLL,6459.9774,N,01433.8577,E,092246.188,A*35
$GPGGA,092246.19,6459.9774,N,01433.8577,E,1,04,2.0,-0034,M,,,,*35
$GPRMB,A,0.00,R,SIM001,SIM002,6502.6970,N,01433.8589,E,002.7,00..,021.7,V*04
$GPRMC,092246.19,A,6459.9774,N,01433.8577,E,21.7,358.5,200302,02.,E*6E
$GPAPB,A,A,0.0,R,N,,,357.6,M,SIM002,357.6,M,,,*3F
$GPGSA,A,3,01,02,03,04,,,,,,,,,2.0,2.0,2.0*34
$GPGSV,3,1,12,06,51,094,,15,51,087,,30,50,150,,25,36,229,*71
$GPGSV,3,2,12,24,31,050,,22,23,292,,01,20,313,,14,19,319,*76
$GPGSV,3,3,12,05,18,134,,13,18,346,,17,16,179,,10,12,109,*7E
$GPGLL,6459.9848,N,01433.8576,E,092247.406,A*36
$GPGGA,092247.41,6459.9848,N,01433.8576,E,1,04,2.0,-0034,M,,,,*38
$GPRMB,A,0.00,R,SIM001,SIM002,6502.6970,N,01433.8589,E,002.7,00..,021.7,V*04
$GPRMC,092247.41,A,6459.9848,N,01433.8576,E,21.7,358.5,200302,02.,E*63
$GPAPB,A,A,0.0,R,N,,,357.6,M,SIM002,357.6,M,,,*3F
$GPGSA,A,3,01,02,03,04,,,,,,,,,2.0,2.0,2.0*34
$GPGSV,3,1,12,06,51,094,,15,51,087,,30,50,150,,25,36,229,*71
$GPGSV,3,2,12,24,31,050,,22,23,292,,01,20,313,,14,19,319,*76
$GPGSV,3,3,12,05,18,134,,13,18,346,,17,16,179,,10,12,109,*7E
$GPGLL,6459.9993,N,01433.8575,E,092249.813,A*34
$GPGGA,092249.81,6459.9993,N,01433.8575,E,1,04,2.0,-0034,M,,,,*3E
$GPRMB,A,0.00,R,SIM001,SIM002,6502.6970,N,01433.8589,E,002.7,00..,021.7,V*04
$GPRMC,092249.81,A,6459.9993,N,01433.8575,E,21.7,358.5,200302,02.,E*65
$GPAPB,A,A,0.0,R,N,,,357.6,M,SIM002,357.6,M,,,*3F
$GPGSA,A,3,01,02,03,04,,,,,,,,,2.0,2.0,2.0*34
$GPGSV,3,1,12,06,51,094,,15,51,087,,30,50,150,,25,36,229,*71
$GPGSV,3,2,12,24,31,050,,22,23,292,,01,20,313,,14,19,319,*76
$GPGSV,3,3,12,05,18,134,,13,18,346,,17,16,179,,10,12,109,*7E
$GPGLL,6500.0136,N,01433.8573,E,092252.188,A*30
$GPGGA,092252.19,6500.0136,N,01433.8573,E,1,04,2.0,-0034,M,,,,*30
$GPRMB,A,0.00,R,SIM001,SIM002,6502.6970,N,01433.8589,E,002.7,00..,021.7,V*04
$GPRMC,092252.19,A,6500.0136,N,01433.8573,E,21.7,358.5,200302,02.,E*6B
$GPAPB,A,A,0.0,R,N,,,357.6,M,SIM002,357.6,M,,,*3F
$GPGSA,A,3,01,02,03,04,,,,,,,,,2.0,2.0,2.0*34
$GPGSV,3,1,12,06,51,094,,15,51,087,,30,50,150,,25,36,229,*71
$GPGSV,3,2,12,24,31,050,,22,23,292,,01,20,313,,14,19,319,*76
$GPGSV,3,3,12,05,18,134,,13,18,346,,17,16,179,,10,12,109,*7E
$GPGLL,6500.0210,N,01433.8572,E,092253.406,A*34
$GPGGA,092253.41,6500.0210,N,01433.8572,E,1,04,2.0,-0034,M,,,,*3A
$GPRMB,A,0.00,R,SIM001,SIM002,6502.6970,N,01433.8589,E,002.7,00..,021.7,V*04
$GPRMC,092253.41,A,6500.0210,N,01433.8572,E,21.7,358.5,200302,02.,E*61
$GPAPB,A,A,0.0,R,N,,,357.6,M,SIM002,357.6,M,,,*3F
$GPGSA,A,3,01,02,03,04,,,,,,,,,2.0,2.0,2.0*34
$GPGSV,3,1,12,06,51,094,,15,51,087,,30,50,150,,25,36,229,*71
$GPGSV,3,2,12,24,31,050,,22,23,292,,01,20,313,,14,19,319,*76
$GPGSV,3,3,12,05,18,134,,13,18,346,,17,16,179,,10,12,109,*7E
$GPGLL,6500.0355,N,01433.8571,E,092255.812,A*38
$GPGGA,092255.81,6500.0355,N,01433.8571,E,1,04,2.0,-0034,M,,,,*33
$GPRMB,A,0.00,R,SIM001,SIM002,6502.6970,N,01433.8589,E,002.7,00..,021.7,V*04
$GPRMC,092255.81,A,6500.0355,N,01433.8571,E,21.7,358.5,200302,02.,E*68
$GPAPB,A,A,0.0,R,N,,,357.6,M,SIM002,357.6,M,,,*3F
$GPGSA,A,3,01,02,03,04,,,,,,,,,2.0,2.0,2.0*34
$GPGSV,3,1,12,06,51,094,,15,51,087,,30,50,150,,25,36,229,*71
$GPGSV,3,2,12,24,31,050,,22,23,292,,01,20,313,,14,19,319,*76
$GPGSV,3,3,12,05,18,134,,13,18,346,,17,16,179,,10,12,109,*7E
$GPGLL,6500.0498,N,01433.8569,E,092258.187,A*3F
$GPGGA,092258.19,6500.0498,N,01433.8569,E,1,04,2.0,-0034,M,,,,*30
$GPRMB,A,0.00,R,SIM001,SIM002,6502.6970,N,01433.8589,E,002.6,00..,021.7,V*05
$GPRMC,092258.19,A,6500.0498,N,01433.8569,E,21.7,358.5,200302,02.,E*6B
$GPAPB,A,A,0.0,R,N,,,357.6,M,SIM002,357.6,M,,,*3F
$GPGSA,A,3,01,02,03,04,,,,,,,,,2.0,2.0,2.0*34
$GPGSV,3,1,12,06,51,094,,15,51,087,,30,50,150,,25,36,229,*71
$GPGSV,3,2,12,24,31,050,,22,23,292,,01,20,313,,14,19,319,*76
$GPGSV,3,3,12,05,18,134,,13,18,346,,17,16,179,,10,12,109,*7E
$GPGLL,6500.0572,N,01433.8568,E,092259.406,A*36
$GPGGA,092259.41,6500.0572,N,01433.8568,E,1,04,2.0,-0034,M,,,,*38
$GPRMB,A,0.00,R,SIM001,SIM002,6502.6970,N,01433.8589,E,002.6,00..,021.7,V*05
$GPRMC,092259.41,A,6500.0572,N,01433.8568,E,21.7,358.5,200302,02.,E*63
$GPAPB,A,A,0.0,R,N,,,357.6,M,SIM002,357.6,M,,,*3F
$GPGSA,A,3,01,02,03,04,,,,,,,,,2.0,2.0,2.0*34
$GPGSV,3,1,12,06,51,094,,15,51,087,,30,50,150,,25,36,229,*71
$GPGSV,3,2,12,24,31,050,,22,23,292,,01,20,313,,14,19,319,*76
$GPGSV,3,3,12,05,18,134,,13,18,346,,17,16,179,,10,12,109,*7E
$GPGLL,6500.0717,N,01433.8567,E,092301.813,A*3C
$GPGGA,092301.81,6500.0717,N,01433.8567,E,1,04,2.0,-0034,M,,,,*36
$GPRMB,A,0.00,R,SIM001,SIM002,6502.6970,N,01433.8589,E,002.6,00..,021.7,V*05
$GPRMC,092301.81,A,6500.0717,N,01433.8567,E,21.7,358.5,200302,02.,E*6D
$GPAPB,A,A,0.0,R,N,,,357.6,M,SIM002,357.6,M,,,*3F
$GPGSA,A,3,01,02,03,04,,,,,,,,,2.0,2.0,2.0*34
$GPGSV,3,1,12,06,51,094,,15,51,087,,30,50,150,,25,36,229,*71
$GPGSV,3,2,12,24,31,050,,22,23,292,,01,20,313,,14,19,319,*76
$GPGSV,3,3,12,05,18,134,,13,18,346,,17,16,179,,10,12,109,*7E
$GPGLL,6500.0860,N,01433.8565,E,092304.188,A*3F
$GPGGA,092304.19,6500.0860,N,01433.8565,E,1,04,2.0,-0034,M,,,,*3F
$GPRMB,A,0.00,R,SIM001,SIM002,6502.6970,N,01433.8589,E,002.6,00..,021.7,V*05
$GPRMC,092304.19,A,6500.0860,N,01433.8565,E,21.7,358.5,200302,02.,E*64
$GPAPB,A,A,0.0,R,N,,,357.6,M,SIM002,357.6,M,,,*3F
$GPGSA,A,3,01,02,03,04,,,,,,,,,2.0,2.0,2.0*34
$GPGSV,3,1,12,06,51,094,,15,51,087,,30,50,150,,25,36,229,*71
$GPGSV,3,2,12,24,31,050,,22,23,292,,01,20,313,,14,19,319,*76
$GPGSV,3,3,12,05,18,134,,13,18,346,,17,16,179,,10,12,109,*7E
$GPGLL,6500.0934,N,01433.8564,E,092305.406,A*3C
$GPGGA,092305.41,6500.0934,N,01433.8564,E,1,04,2.0,-0034,M,,,,*32
$GPRMB,A,0.00,R,SIM001,SIM002,6502.6970,N,01433.8589,E,002.6,00..,021.7,V*05
$GPRMC,092305.41,A,6500.0934,N,01433.8564,E,21.7,358.5,200302,02.,E*69
$GPAPB,A,A,0.0,R,N,,,357.6,M,SIM002,357.6,M,,,*3F
$GPGSA,A,3,01,02,03,04,,,,,,,,,2.0,2.0,2.0*34
$GPGSV,3,1,12,06,51,094,,15,51,087,,30,50,150,,25,36,229,*71
$GPGSV,3,2,12,24,31,050,,22,23,292,,01,20,313,,14,19,319,*76
$GPGSV,3,3,12,05,18,134,,13,18,346,,17,16,179,,10,12,109,*7E
$GPGLL,6500.1079,N,01433.8563,E,092307.813,A*30
$GPGGA,092307.81,6500.1079,N,01433.8563,E,1,04,2.0,-0034,M,,,,*3A
$GPRMB,A,0.00,R,SIM001,SIM002,6502.6970,N,01433.8589,E,002.6,00..,021.7,V*05
$GPRMC,092307.81,A,6500.1079,N,01433.8563,E,21.7,358.5,200302,02.,E*61
$GPAPB,A,A,0.0,R,N,,,357.6,M,SIM002,357.6,M,,,*3F
$GPGSA,A,3,01,02,03,04,,,,,,,,,2.0,2.0,2.0*34
$GPGSV,3,1,12,06,51,094,,15,51,087,,30,50,150,,25,36,229,*71
$GPGSV,3,2,12,24,31,050,,22,23,292,,01,20,313,,14,19,319,*76
$GPGSV,3,3,12,05,18,134,,13,18,346,,17,16,179,,10,12,109,*7E
$GPGLL,6500.1224,N,01433.8561,E,092310.219,A*3E
$GPGGA,092310.22,6500.1224,N,01433.8561,E,1,04,2.0,-0034,M,,,,*3D
$GPRMB,A,0.00,R,SIM001,SIM002,6502.6970,N,01433.8589,E,002.6,00..,021.7,V*05
$GPRMC,092310.22,A,6500.1224,N,01433.8561,E,21.7,358.5,200302,02.,E*66
$GPAPB,A,A,0.0,R,N,,,357.6,M,SIM002,357.6,M,,,*3F
$GPGSA,A,3,01,02,03,04,,,,,,,,,2.0,2.0,2.0*34
$GPGSV,3,1,12,06,51,094,,15,51,087,,30,50,150,,25,36,229,*71
$GPGSV,3,2,12,24,31,050,,22,23,292,,01,20,313,,14,19,319,*76
$GPGSV,3,3,12,05,18,134,,13,18,346,,17,16,179,,10,12,109,*7E
$GPGLL,6500.1296,N,01433.8560,E,092311.406,A*3F
$GPGGA,092311.41,6500.1296,N,01433.8560,E,1,04,2.0,-0034,M,,,,*31
$GPRMB,A,0.00,R,SIM001,SIM002,6502.6970,N,01433.8589,E,002.6,00..,021.7,V*05
$GPRMC,092311.41,A,6500.1296,N,01433.8560,E,21.7,358.5,200302,02.,E*6A
$GPAPB,A,A,0.0,R,N,,,357.6,M,SIM002,357.6,M,,,*3F
$GPGSA,A,3,01,02,03,04,,,,,,,,,2.0,2.0,2.0*34
$GPGSV,3,1,12,06,51,094,,15,51,087,,30,50,150,,25,36,229,*71
$GPGSV,3,2,12,24,31,050,,22,23,292,,01,20,313,,14,19,319,*76
$GPGSV,3,3,12,05,18,134,,13,18,346,,17,16,179,,10,12,109,*7E
$GPGLL,6500.1441,N,01433.8559,E,092313.813,A*33
$GPGGA,092313.81,6500.1441,N,01433.8559,E,1,04,2.0,-0034,M,,,,*39
$GPRMB,A,0.00,R,SIM001,SIM002,6502.6970,N,01433.8589,E,002.6,00..,021.7,V*05
$GPRMC,092313.81,A,6500.1441,N,01433.8559,E,21.7,358.5,200302,02.,E*62
$GPAPB,A,A,0.0,R,N,,,357.6,M,SIM002,357.6,M,,,*3F
$GPGSA,A,3,01,02,03,04,,,,,,,,,2.0,2.0,2.0*34
$GPGSV,3,1,12,06,51,094,,15,51,087,,30,50,150,,25,36,229,*71
$GPGSV,3,2,12,24,31,050,,22,23,292,,01,20,313,,14,19,319,*76
$GPGSV,3,3,12,05,18,134,,13,18,346,,17,16,179,,10,12,109,*7E
$GPGLL,6500.1584,N,01433.8557,E,092316.187,A*34
$GPGGA,092316.19,6500.1584,N,01433.8557,E,1,04,2.0,-0034,M,,,,*3B
$GPRMB,A,0.00,R,SIM001,SIM002,6502.6970,N,01433.8589,E,002.5,00..,021.7,V*06
$GPRMC,092316.19,A,6500.1584,N,01433.8557,E,21.7,358.5,200302,02.,E*60
$GPAPB,A,A,0.0,R,N,,,357.6,M,SIM002,357.6,M,,,*3F
$GPGSA,A,3,01,02,03,04,,,,,,,,,2.0,2.0,2.0*34
$GPGSV,3,1,12,06,51,094,,15,51,087,,30,50,150,,25,36,229,*71
$GPGSV,3,2,12,24,31,050,,22,23,292,,01,20,313,,14,19,319,*76
$GPGSV,3,3,12,05,18,134,,13,18,346,,17,16,179,,10,12,109,*7E
$GPGLL,6500.1658,N,01433.8556,E,092317.406,A*3A
$GPGGA,092317.41,6500.1658,N,01433.8556,E,1,04,2.0,-0034,M,,,,*34
$GPRMB,A,0.00,R,SIM001,SIM002,6502.6970,N,01433.8589,E,002.5,00..,021.7,V*06
$GPRMC,092317.41,A,6500.1658,N,01433.8556,E,21.7,358.5,200302,02.,E*6F
$GPAPB,A,A,0.0,R,N,,,357.6,M,SIM002,357.6,M,,,*3F
$GPGSA,A,3,01,02,03,04,,,,,,,,,2.0,2.0,2.0*34
$GPGSV,3,1,12,06,51,094,,15,51,087,,30,50,150,,25,36,229,*71
$GPGSV,3,2,12,24,31,050,,22,23,292,,01,20,313,,14,19,319,*76
$GPGSV,3,3,12,05,18,134,,13,18,346,,17,16,179,,10,12,109,*7E
$GPGLL,6500.1803,N,01433.8555,E,092319.812,A*3E
$GPGGA,092319.81,6500.1803,N,01433.8555,E,1,04,2.0,-0034,M,,,,*35
$GPRMB,A,0.00,R,SIM001,SIM002,6502.6970,N,01433.8589,E,002.5,00..,021.7,V*06
$GPRMC,092319.81,A,6500.1803,N,01433.8555,E,21.7,358.5,200302,02.,E*6E
$GPAPB,A,A,0.0,R,N,,,357.6,M,SIM002,357.6,M,,,*3F
$GPGSA,A,3,01,02,03,04,,,,,,,,,2.0,2.0,2.0*34
$GPGSV,3,1,12,06,51,094,,15,51,087,,30,50,150,,25,36,229,*71
$GPGSV,3,2,12,24,31,050,,22,23,292,,01,20,313,,14,19,319,*76
$GPGSV,3,3,12,05,18,134,,13,18,346,,17,16,179,,10,12,109,*7E
$GPGLL,6500.1948,N,01433.8553,E,092322.219,A*3F
$GPGGA,092322.22,6500.1948,N,01433.8553,E,1,04,2.0,-0034,M,,,,*3C
$GPRMB,A,0.00,R,SIM001,SIM002,6502.6970,N,01433.8589,E,002.5,00..,021.7,V*06
$GPRMC,092322.22,A,6500.1948,N,01433.8553,E,21.7,358.5,200302,02.,E*67
$GPAPB,A,A,0.0,R,N,,,357.6,M,SIM002,357.6,M,,,*3F
$GPGSA,A,3,01,02,03,04,,,,,,,,,2.0,2.0,2.0*34
$GPGSV,3,1,12,06,51,094,,15,51,087,,30,50,150,,25,36,229,*71
$GPGSV,3,2,12,24,31,050,,22,23,292,,01,20,313,,14,19,319,*76
$GPGSV,3,3,12,05,18,134,,13,18,346,,17,16,179,,10,12,109,*7E
$GPGLL,6500.2020,N,01433.8552,E,092323.406,A*33
$GPGGA,092323.41,6500.2020,N,01433.8552,E,1,04,2.0,-0034,M,,,,*3D
$GPRMB,A,0.00,R,SIM001,SIM002,6502.6970,N,01433.8589,E,002.5,00..,021.7,V*06
$GPRMC,092323.41,A,6500.2020,N,01433.8552,E,21.7,358.5,200302,02.,E*66
$GPAPB,A,A,0.0,R,N,,,357.6,M,SIM002,357.6,M,,,*3F
$GPGSA,A,3,01,02,03,04,,,,,,,,,2.0,2.0,2.0*34
$GPGSV,3,1,12,06,51,094,,15,51,087,,30,50,150,,25,36,229,*71
$GPGSV,3,2,12,24,31,050,,22,23,292,,01,20,313,,14,19,319,*76
$GPGSV,3,3,12,05,18,134,,13,18,346,,17,16,179,,10,12,109,*7E
$GPGLL,6500.2165,N,01433.8553,E,092325.812,A*3D
$GPGGA,092325.81,6500.2165,N,01433.8553,E,1,04,2.0,-0034,M,,,,*36
$GPRMB,A,0.00,R,SIM001,SIM002,6502.6970,N,01433.8589,E,002.5,00..,021.7,V*06
$GPRMC,092325.81,A,6500.2165,N,01433.8553,E,21.7,003.0,200302,02.,E*65
$GPAPB,A,A,0.0,R,N,,,357.6,M,SIM002,357.6,M,,,*3F
$GPGSA,A,3,01,02,03,04,,,,,,,,,2.0,2.0,2.0*34
$GPGSV,3,1,12,06,51,094,,15,51,087,,30,50,150,,25,36,229,*71
$GPGSV,3,2,12,24,31,050,,22,23,292,,01,20,313,,14,19,319,*76
$GPGSV,3,3,12,05,18,134,,13,18,346,,17,16,179,,10,12,109,*7E
$GPGLL,6500.2310,N,01433.8557,E,092328.219,A*35
$GPGGA,092328.22,6500.2310,N,01433.8557,E,1,04,2.0,-0034,M,,,,*36
$GPRMB,A,0.00,R,SIM001,SIM002,6502.6970,N,01433.8589,E,002.5,00..,021.7,V*06
$GPRMC,092328.22,A,6500.2310,N,01433.8557,E,21.7,003.0,200302,02.,E*65
$GPAPB,A,A,0.0,R,N,,,357.6,M,SIM002,357.6,M,,,*3F
$GPGSA,A,3,01,02,03,04,,,,,,,,,2.0,2.0,2.0*34
$GPGSV,3,1,12,06,51,094,,15,51,087,,30,50,150,,25,36,229,*71
$GPGSV,3,2,12,24,31,050,,22,23,292,,01,20,313,,14,19,319,*76
$GPGSV,3,3,12,05,18,134,,13,18,346,,17,16,179,,10,12,109,*7E
$GPGLL,6500.2381,N,01433.8558,E,092329.406,A*3B
$GPGGA,092329.41,6500.2381,N,01433.8558,E,1,04,2.0,-0034,M,,,,*35
$GPRMB,A,0.00,R,SIM001,SIM002,6502.6970,N,01433.8589,E,002.5,00..,021.7,V*06
$GPRMC,092329.41,A,6500.2381,N,01433.8558,E,21.7,003.0,200302,02.,E*66
$GPAPB,A,A,0.0,R,N,,,357.6,M,SIM002,357.6,M,,,*3F
$GPGSA,A,3,01,02,03,04,,,,,,,,,2.0,2.0,2.0*34
$GPGSV,3,1,12,06,51,094,,15,51,087,,30,50,150,,25,36,229,*71
$GPGSV,3,2,12,24,31,050,,22,23,292,,01,20,313,,14,19,319,*76
$GPGSV,3,3,12,05,18,134,,13,18,346,,17,16,179,,10,12,109,*7E
$GPGLL,6500.2526,N,01433.8561,E,092331.812,A*3A
$GPGGA,092331.81,6500.2526,N,01433.8561,E,1,04,2.0,-0034,M,,,,*31
$GPRMB,A,0.00,R,SIM001,SIM002,6502.6970,N,01433.8589,E,002.4,00..,021.7,V*07
$GPRMC,092331.81,A,6500.2526,N,01433.8561,E,21.7,003.0,200302,02.,E*62
$GPAPB,A,A,0.0,R,N,,,357.6,M,SIM002,357.6,M,,,*3F
$GPGSA,A,3,01,02,03,04,,,,,,,,,2.0,2.0,2.0*34
$GPGSV,3,1,12,06,51,094,,15,51,087,,30,50,150,,25,36,229,*71
$GPGSV,3,2,12,24,31,050,,22,23,292,,01,20,313,,14,19,319,*76
$GPGSV,3,3,12,05,18,134,,13,18,346,,17,16,179,,10,12,109,*7E
$GPGLL,6500.2671,N,01433.8565,E,092334.219,A*3B
$GPGGA,092334.22,6500.2671,N,01433.8565,E,1,04,2.0,-0034,M,,,,*38
$GPRMB,A,0.00,R,SIM001,SIM002,6502.6970,N,01433.8589,E,002.4,00..,021.7,V*07
$GPRMC,092334.22,A,6500.2671,N,01433.8565,E,21.7,003.0,200302,02.,E*6B
$GPAPB,A,A,0.0,R,N,,,357.6,M,SIM002,357.6,M,,,*3F
$GPGSA,A,3,01,02,03,04,,,,,,,,,2.0,2.0,2.0*34
$GPGSV,3,1,12,06,51,094,,15,51,087,,30,50,150,,25,36,229,*71
$GPGSV,3,2,12,24,31,050,,22,23,292,,01,20,313,,14,19,319,*76
$GPGSV,3,3,12,05,18,134,,13,18,346,,17,16,179,,10,12,109,*7E
$GPGLL,6500.2743,N,01433.8566,E,092335.406,A*31
$GPGGA,092335.41,6500.2743,N,01433.8566,E,1,04,2.0,-0034,M,,,,*3F
$GPRMB,A,0.00,R,SIM001,SIM002,6502.6970,N,01433.8589,E,002.4,00..,021.7,V*07
$GPRMC,092335.41,A,6500.2743,N,01433.8566,E,21.7,003.0,200302,02.,E*6C
$GPAPB,A,A,0.0,R,N,,,357.6,M,SIM002,357.6,M,,,*3F
$GPGSA,A,3,01,02,03,04,,,,,,,,,2.0,2.0,2.0*34
$GPGSV,3,1,12,06,51,094,,15,51,087,,30,50,150,,25,36,229,*71
$GPGSV,3,2,12,24,31,050,,22,23,292,,01,20,313,,14,19,319,*76
$GPGSV,3,3,12,05,18,134,,13,18,346,,17,16,179,,10,12,109,*7E
$GPGLL,6500.2888,N,01433.8569,E,092337.813,A*3C
$GPGGA,092337.81,6500.2888,N,01433.8569,E,1,04,2.0,-0034,M,,,,*36
$GPRMB,A,0.00,R,SIM001,SIM002,6502.6970,N,01433.8589,E,002.4,00..,021.7,V*07
$GPRMC,092337.81,A,6500.2888,N,01433.8569,E,21.7,003.0,200302,02.,E*65
$GPAPB,A,A,0.0,R,N,,,357.6,M,SIM002,357.6,M,,,*3F
$GPGSA,A,3,01,02,03,04,,,,,,,,,2.0,2.0,2.0*34
$GPGSV,3,1,12,06,51,094,,15,51,087,,30,50,150,,25,36,229,*71
$GPGSV,3,2,12,24,31,050,,22,23,292,,01,20,313,,14,19,319,*76
$GPGSV,3,3,12,05,18,134,,13,18,346,,17,16,179,,10,12,109,*7E
$GPGLL,6500.3033,N,01433.8573,E,092340.219,A*3E
$GPGGA,092340.22,6500.3033,N,01433.8573,E,1,04,2.0,-0034,M,,,,*3D
$GPRMB,A,0.00,R,SIM001,SIM002,6502.6970,N,01433.8589,E,002.4,00..,021.7,V*07
$GPRMC,092340.22,A,6500.3033,N,01433.8573,E,21.7,003.0,200302,02.,E*6E
$GPAPB,A,A,0.0,R,N,,,357.6,M,SIM002,357.6,M,,,*3F
$GPGSA,A,3,01,02,03,04,,,,,,,,,2.0,2.0,2.0*34
$GPGSV,3,1,12,06,51,094,,15,51,087,,30,50,150,,25,36,229,*71
$GPGSV,3,2,12,24,31,050,,22,23,292,,01,20,313,,14,19,319,*76
$GPGSV,3,3,12,05,18,134,,13,18,346,,17,16,179,,10,12,109,*7E
$GPGLL,6500.3104,N,01433.8574,E,092341.406,A*35
$GPGGA,092341.41,6500.3104,N,01433.8574,E,1,04,2.0,-0034,M,,,,*3B
$GPRMB,A,0.00,R,SIM001,SIM002,6502.6970,N,01433.8589,E,002.4,00..,021.7,V*07
$GPRMC,092341.41,A,6500.3104,N,01433.8574,E,21.7,003.0,200302,02.,E*68
$GPAPB,A,A,0.0,R,N,,,357.6,M,SIM002,357.6,M,,,*3F
$GPGSA,A,3,01,02,03,04,,,,,,,,,2.0,2.0,2.0*34
$GPGSV,3,1,12,06,51,094,,15,51,087,,30,50,150,,25,36,229,*71
$GPGSV,3,2,12,24,31,050,,22,23,292,,01,20,313,,14,19,319,*76
$GPGSV,3,3,12,05,18,134,,13,18,346,,17,16,179,,10,12,109,*7E
$GPGLL,6500.3249,N,01433.8577,E,092343.812,A*37
$GPGGA,092343.81,6500.3249,N,01433.8577,E,1,04,2.0,-0034,M,,,,*3C
$GPRMB,A,0.00,R,SIM001,SIM002,6502.6970,N,01433.8589,E,002.4,00..,021.7,V*07
$GPRMC,092343.81,A,6500.3249,N,01433.8577,E,21.7,003.0,200302,02.,E*6F
$GPAPB,A,A,0.0,R,N,,,357.6,M,SIM002,357.6,M,,,*3F
$GPGSA,A,3,01,02,03,04,,,,,,,,,2.0,2.0,2.0*34
$GPGSV,3,1,12,06,51,094,,15,51,087,,30,50,150,,25,36,229,*71
$GPGSV,3,2,12,24,31,050,,22,23,292,,01,20,313,,14,19,319,*76
$GPGSV,3,3,12,05,18,134,,13,18,346,,17,16,179,,10,12,109,*7E
$GPGLL,6500.3394,N,01433.8581,E,092346.219,A*3B
$GPGGA,092346.22,6500.3394,N,01433.8581,E,1,04,2.0,-0034,M,,,,*38
$GPRMB,A,0.00,R,SIM001,SIM002,6502.6970,N,01433.8589,E,002.4,000.,021.7,V*19
$GPRMC,092346.22,A,6500.3394,N,01433.8581,E,21.7,003.0,200302,02.,E*6B
$GPAPB,A,A,0.0,R,N,,,357.6,M,SIM002,357.6,M,,,*3F
$GPGSA,A,3,01,02,03,04,,,,,,,,,2.0,2.0,2.0*34
$GPGSV,3,1,12,06,51,094,,15,51,087,,30,50,150,,25,36,229,*71
$GPGSV,3,2,12,24,31,050,,22,23,292,,01,20,313,,14,19,319,*76
$GPGSV,3,3,12,05,18,134,,13,18,346,,17,16,179,,10,12,109,*7E
$GPGLL,6500.3466,N,01433.8582,E,092347.406,A*3B
$GPGGA,092347.41,6500.3466,N,01433.8582,E,1,04,2.0,-0034,M,,,,*35
$GPRMB,A,0.00,R,SIM001,SIM002,6502.6970,N,01433.8589,E,002.4,000.,021.7,V*19
$GPRMC,092347.41,A,6500.3466,N,01433.8582,E,21.7,003.0,200302,02.,E*66
$GPAPB,A,A,0.0,R,N,,,357.6,M,SIM002,357.6,M,,,*3F
$GPGSA,A,3,01,02,03,04,,,,,,,,,2.0,2.0,2.0*34
$GPGSV,3,1,12,06,51,094,,15,51,087,,30,50,150,,25,36,229,*71
$GPGSV,3,2,12,24,31,050,,22,23,292,,01,20,313,,14,19,319,*76
$GPGSV,3,3,12,05,18,134,,13,18,346,,17,16,179,,10,12,109,*7E
$GPGLL,6500.3611,N,01433.8586,E,092349.813,A*3B
$GPGGA,092349.81,6500.3611,N,01433.8586,E,1,04,2.0,-0034,M,,,,*31
$GPRMB,A,0.00,R,SIM001,SIM002,6502.6970,N,01433.8589,E,002.3,00..,021.7,V*00
$GPRMC,092349.81,A,6500.3611,N,01433.8586,E,21.7,003.0,200302,02.,E*62
$GPAPB,A,A,0.0,R,N,,,357.6,M,SIM002,357.6,M,,,*3F
$GPGSA,A,3,01,02,03,04,,,,,,,,,2.0,2.0,2.0*34
$GPGSV,3,1,12,06,51,094,,15,51,087,,30,50,150,,25,36,229,*71
$GPGSV,3,2,12,24,31,050,,22,23,292,,01,20,313,,14,19,319,*76
$GPGSV,3,3,12,05,18,134,,13,18,346,,17,16,179,,10,12,109,*7E
$GPGLL,6500.3756,N,01433.8587,E,092352.219,A*32
$GPGGA,092352.22,6500.3756,N,01433.8587,E,1,04,2.0,-0034,M,,,,*31
$GPRMB,A,0.00,R,SIM001,SIM002,6502.6970,N,01433.8589,E,002.3,00..,021.7,V*00
$GPRMC,092352.22,A,6500.3756,N,01433.8587,E,21.7,001.5,200302,02.,E*65
$GPAPB,A,A,0.0,R,N,,,357.6,M,SIM002,357.6,M,,,*3F
$GPGSA,A,3,01,02,03,04,,,,,,,,,2.0,2.0,2.0*34
$GPGSV,3,1,12,06,51,094,,15,51,087,,30,50,150,,25,36,229,*71
$GPGSV,3,2,12,24,31,050,,22,23,292,,01,20,313,,14,19,319,*76
$GPGSV,3,3,12,05,18,134,,13,18,346,,17,16,179,,10,12,109,*7E
$GPGLL,6500.3828,N,01433.8588,E,092353.406,A*32
$GPGGA,092353.41,6500.3828,N,01433.8588,E,1,04,2.0,-0034,M,,,,*3C
$GPRMB,A,0.00,R,SIM001,SIM002,6502.6970,N,01433.8589,E,002.3,00..,021.7,V*00
$GPRMC,092353.41,A,6500.3828,N,01433.8588,E,21.7,001.5,200302,02.,E*68
$GPAPB,A,A,0.0,R,N,,,357.6,M,SIM002,357.6,M,,,*3F
$GPGSA,A,3,01,02,03,04,,,,,,,,,2.0,2.0,2.0*34
$GPGSV,3,1,12,06,51,094,,15,51,087,,30,50,150,,25,36,229,*71
$GPGSV,3,2,12,24,31,050,,22,23,292,,01,20,313,,14,19,319,*76
$GPGSV,3,3,12,05,18,134,,13,18,346,,17,16,179,,10,12,109,*7E
$GPGLL,6500.3973,N,01433.8590,E,092355.812,A*3B
$GPGGA,092355.81,6500.3973,N,01433.8590,E,1,04,2.0,-0034,M,,,,*30
$GPRMB,A,0.00,L,SIM001,SIM002,6502.6970,N,01433.8589,E,002.3,000.,021.7,V*00
$GPRMC,092355.81,A,6500.3973,N,01433.8590,E,21.7,001.5,200302,02.,E*64
$GPAPB,A,A,0.0,L,N,,,357.6,M,SIM002,357.6,M,,,*21
$GPGSA,A,3,01,02,03,04,,,,,,,,,2.0,2.0,2.0*34
$GPGSV,3,1,12,06,51,094,,15,51,087,,30,50,150,,25,36,229,*71
$GPGSV,3,2,12,24,31,050,,22,23,292,,01,20,313,,14,19,319,*76
$GPGSV,3,3,12,05,18,134,,13,18,346,,17,16,179,,10,12,109,*7E
$GPGLL,6500.4118,N,01433.8591,E,092358.219,A*34
$GPGGA,092358.22,6500.4118,N,01433.8591,E,1,04,2.0,-0034,M,,,,*37
$GPRMB,A,0.00,L,SIM001,SIM002,6502.6970,N,01433.8589,E,002.3,000.,021.7,V*00
$GPRMC,092358.22,A,6500.4118,N,01433.8591,E,21.7,001.5,200302,02.,E*63
$GPAPB,A,A,0.0,L,N,,,357.6,M,SIM002,357.6,M,,,*21
$GPGSA,A,3,01,02,03,04,,,,,,,,,2.0,2.0,2.0*34
$GPGSV,3,1,12,06,51,094,,15,51,087,,30,50,150,,25,36,229,*71
$GPGSV,3,2,12,24,31,050,,22,23,292,,01,20,313,,14,19,319,*76
$GPGSV,3,3,12,05,18,134,,13,18,346,,17,16,179,,10,12,109,*7E
$GPGLL,6500.4190,N,01433.8592,E,092359.406,A*3E
$GPGGA,092359.41,6500.4190,N,01433.8592,E,1,04,2.0,-0034,M,,,,*30
$GPRMB,A,0.00,L,SIM001,SIM002,6502.6970,N,01433.8589,E,002.3,000.,021.7,V*00
$GPRMC,092359.41,A,6500.4190,N,01433.8592,E,21.7,001.5,200302,02.,E*64
$GPAPB,A,A,0.0,L,N,,,357.6,M,SIM002,357.6,M,,,*21
$GPGSA,A,3,01,02,03,04,,,,,,,,,2.0,2.0,2.0*34
$GPGSV,3,1,12,06,51,094,,15,51,087,,30,50,150,,25,36,229,*71
$GPGSV,3,2,12,24,31,050,,22,23,292,,01,20,313,,14,19,319,*76
$GPGSV,3,3,12,05,18,134,,13,18,346,,17,16,179,,10,12,109,*7E
$GPGLL,6500.4335,N,01433.8594,E,092401.813,A*37
$GPGGA,092401.81,6500.4335,N,01433.8594,E,1,04,2.0,-0034,M,,,,*3D
$GPRMB,A,0.00,L,SIM001,SIM002,6502.6970,N,01433.8589,E,002.3,000.,021.7,V*00
$GPRMC,092401.81,A,6500.4335,N,01433.8594,E,21.7,001.5,200302,02.,E*69
$GPAPB,A,A,0.0,L,N,,,357.6,M,SIM002,357.6,M,,,*21
$GPGSA,A,3,01,02,03,04,,,,,,,,,2.0,2.0,2.0*34
$GPGSV,3,1,12,06,51,094,,15,51,087,,30,50,150,,25,36,229,*71
$GPGSV,3,2,12,24,31,050,,22,23,292,,01,20,313,,14,19,319,*76
$GPGSV,3,3,12,05,18,134,,13,18,346,,17,16,179,,10,12,109,*7E
$GPGLL,6500.4480,N,01433.8595,E,092404.219,A*3A
$GPGGA,092404.22,6500.4480,N,01433.8595,E,1,04,2.0,-0034,M,,,,*39
$GPRMB,A,0.00,L,SIM001,SIM002,6502.6970,N,01433.8589,E,002.2,000.,021.7,V*01
$GPRMC,092404.22,A,6500.4480,N,01433.8595,E,21.7,001.5,200302,02.,E*6D
$GPAPB,A,A,0.0,L,N,,,357.6,M,SIM002,357.6,M,,,*21
$GPGSA,A,3,01,02,03,04,,,,,,,,,2.0,2.0,2.0*34
$GPGSV,3,1,12,06,51,094,,15,51,087,,30,50,150,,25,36,229,*71
$GPGSV,3,2,12,24,31,050,,22,23,292,,01,20,313,,14,19,319,*76
$GPGSV,3,3,12,05,18,134,,13,18,346,,17,16,179,,10,12,109,*7E
$GPGLL,6500.4552,N,01433.8596,E,092405.406,A*3E
$GPGGA,092405.41,6500.4552,N,01433.8596,E,1,04,2.0,-0034,M,,,,*30
$GPRMB,A,0.00,L,SIM001,SIM002,6502.6970,N,01433.8589,E,002.2,000.,021.7,V*01
$GPRMC,092405.41,A,6500.4552,N,01433.8596,E,21.7,001.5,200302,02.,E*64
$GPAPB,A,A,0.0,L,N,,,357.6,M,SIM002,357.6,M,,,*21
$GPGSA,A,3,01,02,03,04,,,,,,,,,2.0,2.0,2.0*34
$GPGSV,3,1,12,06,51,094,,15,51,087,,30,50,150,,25,36,229,*71
$GPGSV,3,2,12,24,31,050,,22,23,292,,01,20,313,,14,19,319,*76
$GPGSV,3,3,12,05,18,134,,13,18,346,,17,16,179,,10,12,109,*7E
$GPGLL,6500.4697,N,01433.8598,E,092407.813,A*30
$GPGGA,092407.81,6500.4697,N,01433.8598,E,1,04,2.0,-0034,M,,,,*3A
$GPRMB,A,0.00,L,SIM001,SIM002,6502.6970,N,01433.8589,E,002.2,000.,021.7,V*01
$GPRMC,092407.81,A,6500.4697,N,01433.8598,E,21.7,001.5,200302,02.,E*6E
$GPAPB,A,A,0.0,L,N,,,357.6,M,SIM002,357.6,M,,,*21
$GPGSA,A,3,01,02,03,04,,,,,,,,,2.0,2.0,2.0*34
$GPGSV,3,1,12,06,51,094,,15,51,087,,30,50,150,,25,36,229,*71
$GPGSV,3,2,12,24,31,050,,22,23,292,,01,20,313,,14,19,319,*76
$GPGSV,3,3,12,05,18,134,,13,18,346,,17,16,179,,10,12,109,*7E
$GPGLL,6500.4842,N,01433.8599,E,092410.219,A*31
$GPGGA,092410.22,6500.4842,N,01433.8599,E,1,04,2.0,-0034,M,,,,*32
$GPRMB,A,0.00,L,SIM001,SIM002,6502.6970,N,01433.8589,E,002.2,000.,021.7,V*01
$GPRMC,092410.22,A,6500.4842,N,01433.8599,E,21.7,001.5,200302,02.,E*66
$GPAPB,A,A,0.0,L,N,,,357.6,M,SIM002,357.6,M,,,*21
$GPGSA,A,3,01,02,03,04,,,,,,,,,2.0,2.0,2.0*34
$GPGSV,3,1,12,06,51,094,,15,51,087,,30,50,150,,25,36,229,*71
$GPGSV,3,2,12,24,31,050,,22,23,292,,01,20,313,,14,19,319,*76
$GPGSV,3,3,12,05,18,134,,13,18,346,,17,16,179,,10,12,109,*7E
$GPGLL,6500.4914,N,01433.8600,E,092411.406,A*39
$GPGGA,092411.41,6500.4914,N,01433.8600,E,1,04,2.0,-0034,M,,,,*37
$GPRMB,A,0.00,L,SIM001,SIM002,6502.6970,N,01433.8589,E,002.2,000.,021.7,V*01
$GPRMC,092411.41,A,6500.4914,N,01433.8600,E,21.7,001.5,200302,02.,E*63
$GPAPB,A,A,0.0,L,N,,,357.6,M,SIM002,357.6,M,,,*21
$GPGSA,A,3,01,02,03,04,,,,,,,,,2.0,2.0,2.0*34
$GPGSV,3,1,12,06,51,094,,15,51,087,,30,50,150,,25,36,229,*71
