$GPGLL,6126.8213,N,02351.8747,E,092438.625,A*33
$GPGGA,092438.62,6126.8213,N,02351.8747,E,1,03,4.5,00166,M,,,,*20
$GPRMC,092438.62,A,6126.8213,N,02351.8747,E,00.0,000.0,140501,06.,E*6D
$GPGSA,A,2,18,15,17,,,,,,,,,,4.5,4.5,*16
$GPGSV,3,1,12,15,78,143,54,17,62,085,53,03,48,279,49,22,43,224,47*73
$GPGSV,3,2,12,18,40,150,49,28,32,308,46,26,18,070,44,27,16,332,44*77
$GPGSV,3,3,12,21,13,182,,06,10,119,,08,10,356,,10,06,030,*73
$GPGLL,6126.8221,N,02351.8737,E,092440.773,A*38
$GPGGA,092440.77,6126.8221,N,02351.8737,E,1,03,4.5,00166,M,,,,*2D
$GPRMC,092440.77,A,6126.8221,N,02351.8737,E,00.0,000.0,140501,06.,E*60
$GPGSA,A,2,18,15,17,,,,,,,,,,4.5,4.5,*16
$GPGSV,3,1,12,15,78,143,54,17,62,085,53,03,48,279,49,22,43,224,47*73
$GPGSV,3,2,12,18,40,150,49,28,32,308,46,26,18,070,43,27,16,332,43*77
$GPGSV,3,3,12,21,13,182,,06,10,119,,08,10,356,,10,06,030,*73
$GPGLL,6126.8223,N,02351.8734,E,092442.055,A*38
$GPGGA,092442.05,6126.8223,N,02351.8734,E,1,03,4.5,00166,M,,,,*2B
$GPRMC,092442.05,A,6126.8223,N,02351.8734,E,00.0,000.0,140501,06.,E*66
$GPGSA,A,2,18,15,17,,,,,,,,,,4.5,4.5,*16
$GPGSV,3,1,12,15,78,143,54,17,62,085,53,03,48,279,49,22,43,224,47*73
$GPGSV,3,2,12,18,40,150,49,28,32,308,46,26,18,070,44,27,16,332,42*71
$GPGSV,3,3,12,21,13,182,,06,10,119,,08,10,356,,10,06,030,*73
$GPGLL,6126.8240,N,02351.8745,E,092445.047,A*3F
$GPGGA,092445.05,6126.8240,N,02351.8745,E,1,03,4.5,00166,M,,,,*2F
$GPRMC,092445.05,A,6126.8240,N,02351.8745,E,00.0,000.0,140501,06.,E*62
$GPGSA,A,2,18,15,17,,,,,,,,,,4.5,4.5,*16
$GPGSV,3,1,12,15,78,143,54,17,62,085,53,03,48,279,49,22,43,224,47*73
$GPGSV,3,2,12,18,40,150,49,28,32,308,46,26,18,070,44,27,16,332,44*77
$GPGSV,3,3,12,21,13,182,,06,10,119,,08,10,356,,10,06,030,*73
$GPGLL,6126.8251,N,02351.8752,E,092447.078,A*37
$GPGGA,092447.08,6126.8251,N,02351.8752,E,1,03,4.5,00166,M,,,,*26
$GPRMC,092447.08,A,6126.8251,N,02351.8752,E,00.0,000.0,140501,06.,E*6B
$GPGSA,A,2,18,15,17,,,,,,,,,,4.5,4.5,*16
$GPGSV,3,1,12,15,78,143,54,17,62,085,53,03,48,279,49,22,43,224,47*73
$GPGSV,3,2,12,18,40,150,49,28,32,308,45,26,18,070,44,27,16,332,44*74
$GPGSV,3,3,12,21,13,182,,06,10,119,,08,10,356,,10,06,030,*73
$GPGLL,6126.8255,N,02351.8739,E,092449.664,A*3B
$GPGGA,092449.66,6126.8255,N,02351.8739,E,1,03,4.5,00166,M,,,,*29
$GPRMC,092449.66,A,6126.8255,N,02351.8739,E,00.0,000.0,140501,06.,E*64
$GPGSA,A,2,18,15,17,,,,,,,,,,4.5,4.5,*16
$GPGSV,3,1,12,15,78,143,54,17,62,085,53,03,48,279,49,22,43,224,47*73
$GPGSV,3,2,12,18,40,150,49,28,32,308,46,26,18,070,44,27,16,332,43*70
$GPGSV,3,3,12,21,13,182,,06,10,119,,08,10,356,,10,06,030,*73
$GPGLL,6126.8257,N,02351.8741,E,092450.789,A*3C
$GPGGA,092450.79,6126.8257,N,02351.8741,E,1,03,4.5,00166,M,,,,*22
$GPRMC,092450.79,A,6126.8257,N,02351.8741,E,00.0,000.0,140501,06.,E*6F
$GPGSA,A,2,18,15,17,,,,,,,,,,4.5,4.5,*16
$GPGSV,3,1,12,15,78,143,54,17,62,085,53,03,48,279,49,22,43,224,47*73
$GPGSV,3,2,12,18,40,150,49,28,32,308,46,26,18,070,44,27,16,332,44*77
$GPGSV,3,3,12,21,13,182,,06,10,119,,08,10,356,,10,06,030,*73
$GPGLL,6126.8256,N,02351.8742,E,092452.898,A*33
$GPGGA,092452.90,6126.8256,N,02351.8742,E,1,03,4.5,00166,M,,,,*25
$GPRMC,092452.90,A,6126.8256,N,02351.8742,E,00.0,000.0,140501,06.,E*68
$GPGSA,A,2,18,15,17,,,,,,,,,,4.5,4.5,*16
$GPGSV,3,1,12,15,78,143,54,17,62,085,53,03,48,279,49,22,43,224,47*73
$GPGSV,3,2,12,18,40,150,49,28,32,308,45,26,18,070,44,27,16,332,42*72
$GPGSV,3,3,12,21,13,182,,06,10,119,,08,10,356,,10,06,030,*73
$GPGLL,6126.8255,N,02351.8743,E,092454.023,A*3F
$GPGGA,092454.02,6126.8255,N,02351.8743,E,1,03,4.5,00166,M,,,,*2A
$GPRMC,092454.02,A,6126.8255,N,02351.8743,E,00.0,000.0,140501,06.,E*67
$GPGSA,A,2,18,15,17,,,,,,,,,,4.5,4.5,*16
$GPGSV,3,1,12,15,78,143,54,17,62,085,53,03,48,279,49,22,43,224,46*72
$GPGSV,3,2,12,18,40,150,48,28,32,308,48,26,18,070,45,27,16,332,42*7F
$GPGSV,3,3,12,21,13,182,,06,10,119,,08,10,356,,10,06,030,*73
$GPGLL,6126.8254,N,02351.8733,E,092457.453,A*39
$GPGGA,092457.45,6126.8254,N,02351.8733,E,1,05,1.1,00162,M,,,,*2F
$GPRMC,092457.45,A,6126.8254,N,02351.8733,E,00.0,000.0,140501,06.,E*61
$GPGSA,A,3,18,15,17,28,26,,,,,,,,2.7,1.1,2.5*35
$GPGSV,3,1,12,15,78,141,54,17,61,085,53,03,48,278,48,22,42,224,46*72
$GPGSV,3,2,12,18,40,150,48,28,32,307,47,26,18,069,47,27,16,332,44*73
$GPGSV,3,3,12,21,13,182,,06,10,120,,08,10,356,,10,06,030,*79
$GPGLL,6126.8254,N,02351.8728,E,092458.758,A*34
$GPGGA,092458.76,6126.8254,N,02351.8728,E,1,05,1.1,00162,M,,,,*2A
$GPRMC,092458.76,A,6126.8254,N,02351.8728,E,00.0,000.0,140501,06.,E*64
$GPGSA,A,3,18,15,17,28,26,,,,,,,,2.7,1.1,2.5*35
$GPGSV,3,1,12,15,78,141,54,17,61,085,53,03,48,278,49,22,42,224,47*72
$GPGSV,3,2,12,18,40,150,48,28,32,307,47,26,18,069,46,27,16,332,43*75
$GPGSV,3,3,12,21,13,182,,06,10,120,,08,10,356,,10,06,030,*79
$GPGLL,6126.8253,N,02351.8723,E,092459.937,A*3E
$GPGGA,092459.94,6126.8253,N,02351.8723,E,1,05,1.1,00162,M,,,,*2B
$GPRMC,092459.94,A,6126.8253,N,02351.8723,E,00.0,000.0,140501,06.,E*65
$GPGSA,A,3,18,15,17,28,26,,,,,,,,2.7,1.1,2.5*35
$GPGSV,3,1,12,15,78,141,54,17,61,085,53,03,48,278,49,22,42,224,47*72
$GPGSV,3,2,12,18,40,150,49,28,32,307,47,26,18,069,46,27,16,332,44*73
$GPGSV,3,3,12,21,13,182,,06,10,120,,08,10,356,,10,06,030,*79
$GPGLL,6126.8254,N,02351.8716,E,092502.953,A*32
$GPGGA,092502.95,6126.8254,N,02351.8716,E,1,06,1.0,00162,M,,,,*26
$GPRMC,092502.95,A,6126.8254,N,02351.8716,E,00.0,000.0,140501,06.,E*6A
$GPGSA,A,3,18,15,17,28,26,03,,,,,,,2.6,1.0,2.4*37
$GPGSV,3,1,12,15,78,141,54,17,61,085,53,03,48,278,51,22,42,224,47*7B
$GPGSV,3,2,12,18,40,150,49,28,32,307,47,26,18,069,47,27,16,332,44*72
$GPGSV,3,3,12,21,13,182,,06,10,120,,08,10,356,,10,06,030,*79
$GPGLL,6126.8254,N,02351.8708,E,092505.000,A*35
$GPGGA,092505.00,6126.8254,N,02351.8708,E,1,06,1.0,00163,M,,,,*23
$GPRMC,092505.00,A,6126.8254,N,02351.8708,E,00.0,000.0,140501,06.,E*6E
$GPGSA,A,3,18,15,17,28,26,03,,,,,,,2.6,1.0,2.4*37
$GPGSV,3,1,12,15,78,141,54,17,61,085,52,03,48,278,51,22,42,224,48*75
$GPGSV,3,2,12,18,40,150,49,28,32,307,47,26,18,069,46,27,16,332,44*73
$GPGSV,3,3,12,21,13,182,,06,10,120,,08,10,356,,10,06,030,*79
$GPGLL,6126.8254,N,02351.8707,E,092506.047,A*3A
$GPGGA,092506.05,6126.8254,N,02351.8707,E,1,06,1.0,00163,M,,,,*2A
$GPRMC,092506.05,A,6126.8254,N,02351.8707,E,00.0,000.0,140501,06.,E*67
$GPGSA,A,3,18,15,17,28,26,03,,,,,,,2.6,1.0,2.4*37
$GPGSV,3,1,12,15,78,141,54,17,61,085,53,03,48,278,51,22,42,224,46*7A
$GPGSV,3,2,12,18,40,150,49,28,32,307,47,26,18,069,46,27,16,332,44*73
$GPGSV,3,3,12,21,13,182,44,06,10,120,,08,10,356,,10,06,030,*79
$GPGLL,6126.8255,N,02351.8705,E,092508.727,A*36
$GPGGA,092508.73,6126.8255,N,02351.8705,E,1,08,1.0,00163,M,,,,*28
$GPRMC,092508.73,A,6126.8255,N,02351.8705,E,00.0,000.0,140501,06.,E*6B
$GPGSA,A,3,18,15,17,28,26,03,27,22,,,,,2.2,1.0,1.9*38
$GPGSV,3,1,12,15,78,141,54,17,61,085,53,03,48,278,51,22,42,224,48*74
$GPGSV,3,2,12,18,40,150,49,28,32,307,47,26,18,069,46,27,16,332,45*72
$GPGSV,3,3,12,21,13,182,42,06,10,120,,08,10,356,,10,06,030,*7F
$GPGLL,6126.8254,N,02351.8700,E,092510.852,A*36
$GPGGA,092510.85,6126.8254,N,02351.8700,E,1,08,1.0,00163,M,,,,*2C
$GPRMC,092510.85,A,6126.8254,N,02351.8700,E,00.0,000.0,140501,06.,E*6F
$GPGSA,A,3,18,15,17,28,26,03,27,22,,,,,2.2,1.0,1.9*38
$GPGSV,3,1,12,15,78,141,54,17,61,085,53,03,48,278,51,22,42,224,49*75
$GPGSV,3,2,12,18,40,150,49,28,32,307,47,26,18,069,47,27,16,332,44*72
$GPGSV,3,3,12,21,13,182,41,06,10,120,,08,10,356,,10,06,030,*7C
$GPGLL,6126.8255,N,02351.8695,E,092512.914,A*3B
$GPGGA,092512.91,6126.8255,N,02351.8695,E,1,08,1.0,00164,M,,,,*20
$GPRMC,092512.91,A,6126.8255,N,02351.8695,E,00.0,000.0,140501,06.,E*64
$GPGSA,A,3,18,15,17,28,26,03,27,22,,,,,2.2,1.0,1.9*38
$GPGSV,3,1,12,15,78,141,54,17,61,085,52,03,48,278,50,22,42,224,48*74
$GPGSV,3,2,12,18,40,150,48,28,32,307,47,26,18,069,47,27,16,332,44*73
$GPGSV,3,3,12,21,13,182,41,06,10,120,,08,10,356,,10,06,030,*7C
$GPGLL,6126.8255,N,02351.8692,E,092514.945,A*3E
$GPGGA,092514.95,6126.8255,N,02351.8692,E,1,08,1.0,00164,M,,,,*25
$GPRMC,092514.95,A,6126.8255,N,02351.8692,E,00.0,000.0,140501,06.,E*61
$GPGSA,A,3,18,15,17,28,26,03,27,22,,,,,2.2,1.0,1.9*38
$GPGSV,3,1,12,15,78,141,54,17,61,085,52,03,48,278,51,22,42,224,48*75
$GPGSV,3,2,12,18,40,150,49,28,32,307,47,26,18,069,47,27,16,332,45*73
$GPGSV,3,3,12,21,13,182,41,06,10,120,,08,10,356,,10,06,030,*7C
$GPGLL,6126.8255,N,02351.8689,E,092516.914,A*32
$GPGGA,092516.91,6126.8255,N,02351.8689,E,1,08,1.0,00165,M,,,,*28
$GPRMC,092516.91,A,6126.8255,N,02351.8689,E,00.0,000.0,140501,06.,E*6D
$GPGSA,A,3,18,15,17,28,26,03,27,22,,,,,2.2,1.0,1.9*38
$GPGSV,3,1,12,15,78,141,54,17,61,085,52,03,48,278,51,22,42,224,48*75
$GPGSV,3,2,12,18,40,150,49,28,32,307,47,26,18,069,47,27,16,332,44*72
$GPGSV,3,3,12,21,13,182,40,06,10,120,,08,10,356,,10,06,030,*7D
$GPGLL,6126.8253,N,02351.8685,E,092519.039,A*31
$GPGGA,092519.04,6126.8253,N,02351.8685,E,1,08,1.0,00165,M,,,,*21
$GPRMC,092519.04,A,6126.8253,N,02351.8685,E,00.0,000.0,140501,06.,E*64
$GPGSA,A,3,18,15,17,28,26,03,27,22,,,,,2.2,1.0,1.9*38
$GPGSV,3,1,12,15,78,141,54,17,61,085,52,03,48,278,51,22,42,224,48*75
$GPGSV,3,2,12,18,40,150,49,28,32,307,47,26,18,069,47,27,16,332,44*72
$GPGSV,3,3,12,21,13,182,41,06,10,120,,08,10,356,,10,06,030,*7C
$GPGLL,6126.8253,N,02351.8682,E,092521.641,A*34
$GPGGA,092521.64,6126.8253,N,02351.8682,E,1,08,1.0,00166,M,,,,*28
$GPRMC,092521.64,A,6126.8253,N,02351.8682,E,00.0,000.0,140501,06.,E*6E
$GPGSA,A,3,18,15,17,28,26,03,27,22,,,,,2.2,1.0,1.9*38
$GPGSV,3,1,12,15,78,141,54,17,61,085,52,03,48,278,51,22,42,224,48*75
$GPGSV,3,2,12,18,40,150,49,28,32,307,46,26,18,069,46,27,16,332,45*73
$GPGSV,3,3,12,21,13,182,39,06,10,120,,08,10,356,,10,06,030,*73
$GPGLL,6126.8252,N,02351.8682,E,092522.844,A*3D
$GPGGA,092522.84,6126.8252,N,02351.8682,E,1,08,1.0,00166,M,,,,*24
$GPRMC,092522.84,A,6126.8252,N,02351.8682,E,00.0,000.0,140501,06.,E*62
$GPGSA,A,3,18,15,17,28,26,03,27,22,,,,,2.2,1.0,1.9*38
$GPGSV,3,1,12,15,78,141,54,17,61,085,52,03,48,278,51,22,42,224,48*75
$GPGSV,3,2,12,18,40,150,48,28,32,307,47,26,18,069,46,27,16,332,45*73
$GPGSV,3,3,12,21,13,182,41,06,10,120,,08,10,356,,10,06,030,*7C
$GPGLL,6126.8251,N,02351.8680,E,092525.039,A*39
$GPGGA,092525.04,6126.8251,N,02351.8680,E,1,08,1.0,00166,M,,,,*2A
$GPRMC,092525.04,A,6126.8251,N,02351.8680,E,00.0,000.0,140501,06.,E*6C
$GPGSA,A,3,18,15,17,28,26,03,27,22,,,,,2.2,1.0,1.9*38
$GPGSV,3,1,12,15,78,141,54,17,61,085,53,03,48,278,51,22,42,224,49*75
$GPGSV,3,2,12,18,40,150,48,28,32,307,47,26,18,069,47,27,16,332,45*72
$GPGSV,3,3,12,21,13,182,41,06,10,120,,08,10,356,,10,06,030,*7C
$GPGLL,6126.8251,N,02351.8678,E,092527.586,A*3D
$GPGGA,092527.59,6126.8251,N,02351.8678,E,1,08,1.0,00166,M,,,,*27
$GPRMC,092527.59,A,6126.8251,N,02351.8678,E,00.0,000.0,140501,06.,E*61
$GPGSA,A,3,18,15,17,28,26,03,27,22,,,,,2.2,1.0,1.9*38
$GPGSV,3,1,12,15,78,141,54,17,61,085,53,03,48,278,51,22,42,224,49*75
$GPGSV,3,2,12,18,40,150,49,28,32,307,47,26,18,069,46,27,16,332,45*72
$GPGSV,3,3,12,21,13,182,41,06,10,120,,08,10,356,,10,06,030,*7C
$GPGLL,6126.8251,N,02351.8677,E,092528.750,A*34
$GPGGA,092528.75,6126.8251,N,02351.8677,E,1,08,1.0,00166,M,,,,*29
$GPRMC,092528.75,A,6126.8251,N,02351.8677,E,00.0,000.0,140501,06.,E*6F
$GPGSA,A,3,18,15,17,28,26,03,27,22,,,,,2.2,1.0,1.9*38
$GPGSV,3,1,12,15,78,141,54,17,61,085,52,03,48,278,51,22,42,224,49*74
$GPGSV,3,2,12,18,40,150,48,28,32,307,47,26,18,069,47,27,16,332,45*72
$GPGSV,3,3,12,21,13,182,41,06,10,120,,08,10,356,,10,06,030,*7C
$GPGLL,6126.8251,N,02351.8676,E,092530.992,A*3C
$GPGGA,092530.99,6126.8251,N,02351.8676,E,1,08,1.0,00166,M,,,,*23
$GPRMC,092530.99,A,6126.8251,N,02351.8676,E,00.0,000.0,140501,06.,E*65
$GPGSA,A,3,18,15,17,28,26,03,27,22,,,,,2.2,1.0,1.9*38
$GPGSV,3,1,12,15,78,141,54,17,61,085,53,03,48,278,51,22,42,224,49*75
$GPGSV,3,2,12,18,40,150,49,28,32,307,47,26,18,069,46,27,16,332,45*72
$GPGSV,3,3,12,21,13,182,41,06,10,120,,08,10,356,,10,06,030,*7C
$GPGLL,6126.8251,N,02351.8675,E,092533.055,A*3E
$GPGGA,092533.05,6126.8251,N,02351.8675,E,1,08,1.0,00166,M,,,,*26
$GPRMC,092533.05,A,6126.8251,N,02351.8675,E,00.0,000.0,140501,06.,E*60
$GPGSA,A,3,18,15,17,28,26,03,27,22,,,,,2.2,1.0,1.9*38
$GPGSV,3,1,12,15,78,141,54,17,61,085,52,03,48,278,51,22,42,224,48*75
$GPGSV,3,2,12,18,40,150,48,28,32,307,47,26,18,069,46,27,16,332,45*73
$GPGSV,3,3,12,21,13,182,42,06,10,120,,08,10,356,,10,06,030,*7F
$GPGLL,6126.8250,N,02351.8674,E,092535.555,A*3D
$GPGGA,092535.55,6126.8250,N,02351.8674,E,1,08,1.0,00166,M,,,,*25
$GPRMC,092535.55,A,6126.8250,N,02351.8674,E,00.0,000.0,140501,06.,E*63
$GPGSA,A,3,18,15,17,28,26,03,27,22,,,,,2.2,1.0,1.9*38
$GPGSV,3,1,12,15,78,141,54,17,61,085,52,03,48,278,51,22,42,224,48*75
$GPGSV,3,2,12,18,40,150,48,28,32,307,47,26,18,069,47,27,16,332,45*72
$GPGSV,3,3,12,21,13,182,41,06,10,120,,08,10,356,,10,06,030,*7C
$GPGLL,6126.8251,N,02351.8674,E,092537.461,A*38
$GPGGA,092537.46,6126.8251,N,02351.8674,E,1,09,0.9,00166,M,,,,*2D
$GPRMC,092537.46,A,6126.8251,N,02351.8674,E,00.0,000.0,140501,06.,E*62
$GPGSA,A,3,18,15,17,28,26,03,27,22,21,,,,1.6,0.9,1.4*39
$GPGSV,3,1,12,15,78,141,54,17,61,085,52,03,48,278,51,22,42,224,48*75
$GPGSV,3,2,12,18,40,150,48,28,32,307,46,26,18,069,46,27,16,332,46*71
$GPGSV,3,3,12,21,13,182,44,06,10,120,,08,10,356,,10,06,030,*79
$GPGLL,6126.8251,N,02351.8673,E,092538.719,A*3C
$GPGGA,092538.72,6126.8251,N,02351.8673,E,1,09,0.9,00166,M,,,,*22
$GPRMC,092538.72,A,6126.8251,N,02351.8673,E,00.0,000.0,140501,06.,E*6D
$GPGSA,A,3,18,15,17,28,26,03,27,22,21,,,,1.6,0.9,1.4*39
$GPGSV,3,1,12,15,78,141,54,17,61,085,52,03,48,278,51,22,42,224,49*74
$GPGSV,3,2,12,18,40,150,48,28,32,307,47,26,18,069,47,27,16,332,45*72
$GPGSV,3,3,12,21,13,182,44,06,10,120,,08,10,356,,10,06,030,*79
$GPGLL,6126.8250,N,02351.8673,E,092540.750,A*3F
$GPGGA,092540.75,6126.8250,N,02351.8673,E,1,09,0.9,00167,M,,,,*2A
$GPRMC,092540.75,A,6126.8250,N,02351.8673,E,00.0,000.0,140501,06.,E*64
$GPGSA,A,3,18,15,17,28,26,03,27,22,21,,,,1.6,0.9,1.4*39
$GPGSV,3,1,12,15,78,141,54,17,61,085,52,03,48,278,51,22,42,224,49*74
$GPGSV,3,2,12,18,40,150,48,28,32,307,47,26,18,069,46,27,16,332,45*73
$GPGSV,3,3,12,21,13,182,43,06,10,120,,08,10,356,,10,06,030,*7E
$GPGLL,6126.8250,N,02351.8672,E,092542.953,A*31
$GPGGA,092542.95,6126.8250,N,02351.8672,E,1,09,0.9,00167,M,,,,*27
$GPRMC,092542.95,A,6126.8250,N,02351.8672,E,00.0,000.0,140501,06.,E*69
$GPGSA,A,3,18,15,17,28,26,03,27,22,21,,,,1.6,0.9,1.4*39
$GPGSV,3,1,12,15,78,141,54,17,61,085,53,03,48,278,51,22,42,224,49*75
$GPGSV,3,2,12,18,40,150,48,28,32,307,47,26,18,069,47,27,16,332,45*72
$GPGSV,3,3,12,21,13,182,44,06,10,120,,08,10,356,,10,06,030,*79
$GPGLL,6126.8250,N,02351.8671,E,092544.984,A*3E
$GPGGA,092544.98,6126.8250,N,02351.8671,E,1,09,0.9,00167,M,,,,*2F
$GPRMC,092544.98,A,6126.8250,N,02351.8671,E,00.0,000.0,140501,06.,E*61
$GPGSA,A,3,18,15,17,28,26,03,27,22,21,,,,1.6,0.9,1.4*39
$GPGSV,3,1,12,15,78,141,54,17,61,085,53,03,48,278,51,22,42,224,49*75
$GPGSV,3,2,12,18,40,150,48,28,32,307,47,26,18,069,46,27,16,332,45*73
$GPGSV,3,3,12,21,13,182,44,06,10,120,,08,10,356,,10,06,030,*79
$GPGLL,6126.8250,N,02351.8670,E,092547.602,A*3D
$GPGGA,092547.60,6126.8250,N,02351.8670,E,1,09,0.9,00167,M,,,,*2A
$GPRMC,092547.60,A,6126.8250,N,02351.8670,E,00.0,000.0,140501,06.,E*64
$GPGSA,A,3,18,15,17,28,26,03,27,22,21,,,,1.6,0.9,1.4*39
$GPGSV,3,1,12,15,78,141,54,17,61,085,53,03,48,278,51,22,42,224,49*75
$GPGSV,3,2,12,18,40,150,48,28,32,307,47,26,18,069,47,27,16,332,45*72
$GPGSV,3,3,12,21,13,182,44,06,10,120,,08,10,356,,10,06,030,*79
$GPGLL,6126.8250,N,02351.8670,E,092548.852,A*39
$GPGGA,092548.85,6126.8250,N,02351.8670,E,1,09,0.9,00167,M,,,,*2E
$GPRMC,092548.85,A,6126.8250,N,02351.8670,E,00.0,000.0,140501,06.,E*60
$GPGSA,A,3,18,15,17,28,26,03,27,22,21,,,,1.6,0.9,1.4*39
$GPGSV,3,1,12,15,78,141,54,17,61,085,52,03,48,278,50,22,42,224,49*75
$GPGSV,3,2,12,18,40,150,47,28,32,307,46,26,18,069,46,27,16,332,45*7D
$GPGSV,3,3,12,21,13,182,44,06,10,120,,08,10,356,,10,06,030,*79
$GPGLL,6126.8250,N,02351.8669,E,092551.656,A*33
$GPGGA,092551.66,6126.8250,N,02351.8669,E,1,09,0.9,00167,M,,,,*23
$GPRMC,092551.66,A,6126.8250,N,02351.8669,E,00.0,000.0,140501,06.,E*6D
$GPGSA,A,3,18,15,17,28,26,03,27,22,21,,,,1.6,0.9,1.4*39
$GPGSV,3,1,12,15,78,141,54,17,61,085,53,03,48,278,51,22,42,224,49*75
$GPGSV,3,2,12,18,40,150,48,28,32,307,47,26,18,069,47,27,16,332,45*72
$GPGSV,3,3,12,21,13,182,43,06,10,120,,08,10,356,,10,06,030,*7E
$GPGLL,6126.8250,N,02351.8668,E,092553.641,A*36
$GPGGA,092553.64,6126.8250,N,02351.8668,E,1,09,0.9,00167,M,,,,*22
$GPRMC,092553.64,A,6126.8250,N,02351.8668,E,00.0,000.0,140501,06.,E*6C
$GPGSA,A,3,18,15,17,28,26,03,27,22,21,,,,1.6,0.9,1.4*39
$GPGSV,3,1,12,15,78,141,54,17,61,085,52,03,48,278,51,22,42,224,49*74
$GPGSV,3,2,12,18,40,150,48,28,32,307,46,26,18,069,47,27,16,332,45*73
$GPGSV,3,3,12,21,13,182,44,06,10,120,,08,10,356,,10,06,030,*79
$GPGLL,6126.8250,N,02351.8668,E,092555.016,A*34
$GPGGA,092555.02,6126.8250,N,02351.8668,E,1,09,0.9,00167,M,,,,*24
$GPRMC,092555.02,A,6126.8250,N,02351.8668,E,00.0,000.0,140501,06.,E*6A
$GPGSA,A,3,18,15,17,28,26,03,27,22,21,,,,1.6,0.9,1.4*39
$GPGSV,3,1,12,15,78,141,54,17,61,085,53,03,48,278,51,22,42,224,49*75
$GPGSV,3,2,12,18,40,150,48,28,32,307,47,26,18,069,46,27,16,332,45*73
$GPGSV,3,3,12,21,13,182,44,06,10,120,,08,10,356,,10,06,030,*79
