$GPGGA,130044,,,,,0,00,,,M,,M,,*64
$GPGSA,A,1,,,,,,,,,,,,,17.9,17.9,*1E
$GPGSV,3,1,11,03,05,014,00,07,00,154,00,08,55,094,00,10,18,210,34*76
$GPGSV,3,2,11,15,13,334,37,18,17,328,00,19,21,034,41,21,05,299,00*75
$GPGSV,3,3,11,26,60,277,50,28,62,143,43,29,68,248,47,,,,*4B
$PGRME,70.2,M,,M,70.2,M*00
$GPGLL,6126.883,N,02351.302,E,125330,A*28
$PGRMZ,572,f,2*1A
$PGRMM,WGS 84*06
$GPBOD,,T,,M,,*47
$GPWPL,6017.083,S,02453.500,E,T025*3B
$GPRMC,125330,A,6126.884,N,02351.300,E,000.0,360.0,110805,006.0,E*7F
$GPRMB,A,,,,,,,,,,,,V*71
$GPGGA,125330,6126.885,N,02351.300,E,1,00,17.9,174.2,M,20.7,M,,*7E
$GPGSA,A,2,,,,,,,,,26,28,29,,17.9,17.9,*18
$GPGSV,3,1,11,03,05,014,00,07,00,154,00,08,55,094,00,10,18,210,33*71
$GPGSV,3,2,11,15,13,334,37,18,17,328,00,19,21,034,40,21,05,299,00*74
$GPGSV,3,3,11,26,60,277,50,28,62,143,43,29,68,248,47,,,,*4B
$PGRME,70.2,M,,M,70.2,M*00
$GPGLL,6126.887,N,02351.298,E,125330,A*2E
$PGRMZ,572,f,2*1A
$PGRMM,WGS 84*06
$GPBOD,,T,,M,,*47
$GPWPL,6018.083,N,02453.500,E,T024*28
$GPRMC,125330,A,6126.889,N,02351.296,E,000.0,360.0,110805,006.0,E*7C
$GPRMB,A,,,,,,,,,,,,V*71
$GPGGA,125330,6126.889,N,02351.296,E,1,03,17.9,174.2,M,20.7,M,,*7F
$GPGSA,A,2,,,,,,,,,26,28,29,,17.9,17.9,*18
$GPGSV,3,1,11,03,05,014,00,07,00,154,00,08,55,094,00,10,18,210,33*71
$GPGSV,3,2,11,15,13,334,38,18,17,328,00,19,22,036,39,21,05,299,00*74
$GPGSV,3,3,11,26,60,277,50,28,62,143,42,29,68,248,47,,,,*4A
$PGRME,70.2,M,,M,70.2,M*00
$GPGLL,6126.891,N,02351.294,E,125330,A*25
$PGRMZ,572,f,2*1A
$PGRMM,WGS 84*06
$GPBOD,,T,,M,,*47
$GPWPL,6017.083,N,02452.500,W,T023*33
$GPRMC,125330,A,6126.893,N,02351.292,E,000.0,360.0,110805,006.0,E*73
$GPRMB,A,,,,,,,,,,,,V*71
$GPGGA,125330,6126.894,N,02351.291,E,1,03,17.9,174.2,M,20.7,M,,*74
$GPGSA,A,2,,,,,,,,,26,28,29,,17.9,17.9,*18
$GPGSV,3,1,11,03,05,014,00,07,00,154,00,08,55,094,00,10,18,210,32*70
$GPGSV,3,2,11,15,13,334,38,18,17,328,00,19,22,036,38,21,05,299,00*75
$GPGSV,3,3,11,26,60,277,50,28,62,143,43,29,68,248,47,,,,*4B
$PGRME,70.2,M,,M,70.2,M*00
$GPGLL,6126.896,N,02351.289,E,125330,A*2E
$PGRMZ,572,f,2*1A
$PGRMM,WGS 84*06
$GPBOD,285.4,T,279.4,M,T012,T013*45
$GPWPL,6017.083,N,02555.500,E,T022*26
$GPRMC,125336,A,6126.898,N,02351.287,E,014.9,334.1,110805,006.0,E*76
$GPRMB,A,1.63,R,T013,T012,6129.236,N,02346.327,E,003.3,314.6,014.0,V*26
$GPGGA,125336,6126.898,N,02351.286,E,1,03,17.9,174.2,M,20.7,M,,*78
$GPGSA,A,2,,,,,,,,,26,28,29,,17.9,17.9,*18
$GPGSV,3,1,11,03,05,014,00,07,00,154,00,08,55,094,00,10,18,210,32*70
$GPGSV,3,2,11,15,13,334,38,18,17,328,00,19,22,036,40,21,05,299,00*7A
$GPGSV,3,3,11,26,60,277,50,28,62,143,43,29,68,248,46,,,,*4A
$PGRME,70.2,M,,M,70.2,M*00
$GPGLL,6126.900,N,02351.284,E,125337,A*2A
$PGRMZ,572,f,2*1A
$PGRMM,WGS 84*06
$GPBOD,285.4,T,279.4,M,T012,T013*45
$GPWPL,6017.083,N,02452.500,E,T021*23
$GPRMC,125337,A,6126.903,N,02351.283,E,013.8,329.4,110805,006.0,E*7F
$GPRMB,A,1.62,R,T013,T012,6129.236,N,02346.327,E,003.3,314.5,014.0,V*24
$GPGGA,125337,6126.904,N,02351.282,E,1,03,17.8,174.2,M,20.7,M,,*78
$GPGSA,A,2,,,,,,,,,26,28,29,,17.8,17.8,*18
$GPGSV,3,1,11,03,05,014,00,07,00,154,00,08,55,094,00,10,18,210,32*70
$GPGSV,3,2,11,15,13,334,40,18,17,328,00,19,22,036,41,21,05,299,00*74
$GPGSV,3,3,11,26,60,277,50,28,62,143,42,29,68,248,48,,,,*45
$PGRME,70.2,M,,M,70.2,M*00
$GPGLL,6126.906,N,02351.280,E,125337,A*28
$PGRMZ,572,f,2*1A
$PGRMM,WGS 84*06
$GPBOD,285.4,T,279.4,M,T012,T013*45
$GPWPL,6116.083,N,02452.500,E,T020*22
$GPRMC,125338,A,6126.907,N,02351.278,E,013.8,329.4,110805,006.0,E*70
$GPRMB,A,1.62,R,T013,T012,6129.236,N,02346.327,E,003.3,314.5,013.4,V*27
$GPGGA,125338,6126.912,N,02351.283,E,1,03,17.8,174.2,M,20.7,M,,*71
$GPGSA,A,2,,,,,,,,,26,28,29,,17.8,17.8,*18
$GPGSV,3,1,11,03,05,014,00,07,00,154,00,08,55,094,00,10,18,210,31*73
$GPGSV,3,2,11,15,13,334,40,18,17,328,00,19,22,036,43,21,05,299,00*76
$GPGSV,3,3,11,26,60,277,49,28,62,143,42,29,68,248,48,,,,*4D
$PGRME,70.2,M,,M,70.2,M*00
$GPGLL,6126.914,N,02351.281,E,125339,A*24
$PGRMZ,572,f,2*1A
$PGRMM,WGS 84*06
$GPBOD,285.4,T,279.4,M,T012,T013*45
$GPWPL,6016.083,S,02452.500,E,T019*34
$GPRMC,125340,A,6126.918,N,02351.284,E,014.3,343.5,110805,006.0,E*73
$GPRMB,A,1.61,R,T013,T012,6129.236,N,02346.327,E,003.3,314.3,012.5,V*22
$GPGGA,125340,6126.919,N,02351.283,E,1,03,17.8,174.2,M,20.7,M,,*75
$GPGSA,A,2,,,,,,,,,26,28,29,,17.8,17.8,*18
$GPGSV,3,1,11,03,05,014,00,07,00,154,00,08,55,094,41,10,18,210,31*76
$GPGSV,3,2,11,15,13,334,41,18,17,328,44,19,22,036,43,21,05,299,00*77
$GPGSV,3,3,11,26,60,277,49,28,62,143,42,29,68,248,49,,,,*4C
$PGRME,70.2,M,,M,70.2,M*00
$GPGLL,6126.921,N,02351.282,E,125340,A*2F
$PGRMZ,572,f,2*1A
$PGRMM,WGS 84*06
$GPBOD,285.4,T,279.4,M,T012,T013*45
$GPWPL,6016.083,N,02452.500,E,T018*28
$GPRMC,125341,A,6126.927,N,02351.286,E,015.9,349.3,110805,006.0,E*7B
$GPRMB,A,1.60,R,T013,T012,6129.236,N,02346.327,E,003.3,314.3,012.5,V*23
$GPGGA,125341,6126.927,N,02351.285,E,1,03,17.8,174.2,M,20.7,M,,*7F
$GPGSA,A,2,,,,,,,,,26,28,29,,17.8,17.8,*18
$GPGSV,3,1,11,03,05,014,00,07,00,154,00,08,55,094,40,10,18,210,31*77
$GPGSV,3,2,11,15,13,334,41,18,17,328,44,19,22,036,43,21,05,299,00*77
$GPGSV,3,3,11,26,60,277,49,28,62,143,41,29,68,248,49,,,,*4F
$PGRME,69.7,M,,M,69.7,M*00
$GPGLL,6126.932,N,02351.288,E,125342,A*25
$PGRMZ,572,f,2*1A
$PGRMM,WGS 84*06
$GPBOD,285.4,T,279.4,M,T012,T013*45
$GPWPL,6013.283,N,02456.650,E,T017*22
$GPRMC,125342,A,6126.935,N,02351.287,E,017.9,354.2,110805,006.0,E*75
$GPRMB,A,1.59,R,T013,T012,6129.236,N,02346.327,E,003.3,314.1,013.7,V*28
$GPGGA,125343,6126.937,N,02351.288,E,1,03,17.8,174.2,M,20.7,M,,*71
$GPGSA,A,2,,,,,,,,,26,28,29,,17.8,17.8,*18
$GPGSV,3,1,11,03,05,014,00,07,00,154,00,08,55,094,39,10,18,210,32*7A
$GPGSV,3,2,11,15,13,334,42,18,17,328,44,19,22,036,43,21,06,300,00*76
$GPGSV,3,3,11,26,60,277,49,28,62,143,42,29,68,248,49,,,,*4C
$PGRME,69.7,M,,M,69.7,M*00
$GPGLL,6126.940,N,02351.287,E,125343,A*2E
$PGRMZ,572,f,2*1A
$PGRMM,WGS 84*06
$GPBOD,285.4,T,279.4,M,T012,T013*45
$GPWPL,6123.283,N,02430.650,E,T016*21
$GPRMC,125344,A,6126.943,N,02351.287,E,018.5,353.9,110805,006.0,E*7D
$GPRMB,A,1.58,R,T013,T012,6129.236,N,02346.327,E,003.3,314.0,014.2,V*2A
$GPGGA,125344,6126.944,N,02351.287,E,1,03,17.8,174.2,M,20.7,M,,*7D
$GPGSA,A,2,,,,,,,,,26,28,29,,17.8,17.8,*18
$GPGSV,3,1,11,03,05,014,00,07,00,154,00,08,55,094,40,10,18,210,34*72
$GPGSV,3,2,11,15,13,334,41,18,17,328,43,19,22,036,43,21,06,300,00*72
$GPGSV,3,3,11,26,60,277,49,28,62,143,41,29,68,248,49,,,,*4F
$PGRME,69.7,M,,M,69.7,M*00
$GPGLL,6126.947,N,02351.287,E,125345,A*2F
$PGRMZ,572,f,2*1A
$PGRMM,WGS 84*06
$GPBOD,285.4,T,279.4,M,T012,T013*45
$GPWPL,0000.000,N,00000.000,W,T015*39
$GPRMC,125345,A,6126.950,N,02351.286,E,018.6,354.1,110805,006.0,E*73
$GPRMB,A,1.58,R,T013,T012,6129.236,N,02346.327,E,003.3,313.9,014.2,V*24
$GPGGA,125345,6126.951,N,02351.286,E,1,03,17.7,174.2,M,20.7,M,,*76
$GPGSA,A,2,,,,,,,,,26,28,29,,17.7,17.7,*18
$GPGSV,3,1,11,03,05,014,00,07,00,154,00,08,55,094,39,10,18,210,35*7D
$GPGSV,3,2,11,15,13,334,42,18,17,328,42,19,22,036,43,21,06,300,00*70
$GPGSV,3,3,11,26,60,277,49,28,62,143,41,29,68,248,49,,,,*4F
$PGRME,69.7,M,,M,69.7,M*00
$GPGLL,6126.955,N,02351.286,E,125346,A*2E
$PGRMZ,572,f,2*1A
$PGRMM,WGS 84*06
$GPBOD,285.4,T,279.4,M,T012,T013*45
$GPWPL,0009.000,N,02430.650,E,T014*25
$GPRMC,125346,A,6126.957,N,02351.285,E,018.7,354.1,110805,006.0,E*75
$GPRMB,A,1.57,R,T013,T012,6129.236,N,02346.327,E,003.3,313.8,014.3,V*2B
$GPGGA,125347,6126.958,N,02351.285,E,1,03,17.7,174.2,M,20.7,M,,*7E
$GPGSA,A,2,,,,,,,,,26,28,29,,17.7,17.7,*18
$GPGSV,3,1,11,03,05,014,00,07,00,154,00,08,55,094,39,10,18,210,37*7F
$GPGSV,3,2,11,15,13,334,41,18,17,328,42,19,22,036,43,21,06,300,00*73
$GPGSV,3,3,11,26,60,277,49,28,62,143,39,29,68,248,49,,,,*40
$PGRME,69.7,M,,M,69.7,M*00
$GPGLL,6126.962,N,02351.285,E,125347,A*28
$PGRMZ,572,f,2*1A
$PGRMM,WGS 84*06
$GPBOD,285.4,T,279.4,M,T012,T013*45
$GPWPL,6123.285,N,02430.651,E,T013*23
$GPRMC,125348,A,6126.965,N,02351.284,E,018.8,354.2,110805,006.0,E*77
$GPRMB,A,1.56,R,T013,T012,6129.236,N,02346.327,E,003.3,313.7,014.3,V*25
$GPGGA,125348,6126.966,N,02351.284,E,1,03,17.7,174.2,M,20.7,M,,*7D
$GPGSA,A,2,,,,,,,,,26,28,29,,17.7,17.7,*18
$GPGSV,3,1,11,03,05,014,00,07,00,154,00,08,55,094,39,10,18,210,37*7F
$GPGSV,3,2,11,15,13,334,41,18,17,328,42,19,22,036,43,21,06,300,00*73
$GPGSV,3,3,11,26,60,277,49,28,62,143,39,29,68,248,49,,,,*40
$PGRME,69.7,M,,M,69.7,M*00
$GPGLL,6126.969,N,02351.284,E,125349,A*2C
$PGRMZ,572,f,2*1A
$PGRMM,WGS 84*06
$GPBOD,285.4,T,279.4,M,T012,T013*45
$GPWPL,6129.236,N,02346.327,E,T012*22
$GPRMC,125349,A,6126.972,N,02351.282,E,019.0,354.5,110805,006.0,E*78
$GPRMB,A,1.56,R,T013,T012,6129.236,N,02346.327,E,003.3,313.7,014.4,V*22
$GPGGA,125349,6126.973,N,02351.282,E,1,03,17.7,174.2,M,20.7,M,,*7E
$GPGSA,A,2,,,,,,,,,26,28,29,,17.7,17.7,*18
$GPGSV,3,1,11,03,05,014,00,07,00,154,00,08,55,094,40,10,18,210,37*71
$GPGSV,3,2,11,15,13,334,42,18,17,328,42,19,22,036,44,21,06,300,00*77
$GPGSV,3,3,11,26,60,277,49,28,62,143,39,29,68,248,49,,,,*40
$PGRME,69.7,M,,M,69.7,M*00
$GPGLL,6126.976,N,02351.282,E,125350,A*2C
$PGRMZ,572,f,2*1A
$PGRMM,WGS 84*06
$GPBOD,285.4,T,279.4,M,T012,T013*45
$GPWPL,6114.236,N,02346.327,E,T011*2F
$GPRMC,125350,A,6126.979,N,02351.281,E,019.1,354.5,110805,006.0,E*79
$GPRMB,A,1.55,R,T013,T012,6129.236,N,02346.327,E,003.3,313.6,014.4,V*20
$GPGGA,125351,6126.980,N,02351.281,E,1,03,17.7,174.2,M,20.7,M,,*78
$GPGSA,A,2,,,,,,,,,26,28,29,,17.7,17.7,*18
$GPGSV,3,1,11,03,05,014,00,07,00,154,00,08,55,094,42,10,18,210,37*73
$GPGSV,3,2,11,15,13,334,43,18,17,328,42,19,22,036,44,21,06,300,00*76
$GPGSV,3,3,11,26,60,277,49,28,62,143,38,29,68,248,48,,,,*40
$PGRME,69.7,M,,M,69.7,M*00
$GPGLL,6126.984,N,02351.280,E,125351,A*22
$PGRMZ,572,f,2*1A
$PGRMM,WGS 84*06
$GPBOD,285.4,T,279.4,M,T012,T013*45
$GPWPL,6220.236,N,02346.327,E,T010*2A
$GPRMC,125352,A,6126.987,N,02351.280,E,019.1,354.5,110805,006.0,E*7B
$GPRMB,A,1.54,R,T013,T012,6129.236,N,02346.327,E,003.3,313.5,014.5,V*23
$GPGGA,125352,6126.988,N,02351.279,E,1,03,17.7,174.2,M,20.7,M,,*74
$GPGSA,A,2,,,,,,,,,26,28,29,,17.7,17.7,*18
$GPGSV,3,1,11,03,05,014,00,07,00,154,00,08,55,094,42,10,18,210,37*73
$GPGSV,3,2,11,15,13,334,43,18,17,328,42,19,22,036,43,21,06,300,00*71
$GPGSV,3,3,11,26,60,277,49,28,62,143,37,29,68,248,48,,,,*4F
$PGRME,69.1,M,,M,69.1,M*00
$GPGLL,6126.991,N,02351.279,E,125352,A*23
$PGRMZ,572,f,2*1A
$PGRMM,WGS 84*06
$GPBOD,285.4,T,279.4,M,T012,T013*45
$GPWPL,6120.236,N,02346.327,E,T009*21
$GPRMC,125353,A,6126.994,N,02351.279,E,019.3,354.6,110805,006.0,E*7F
$GPRMB,A,1.54,R,T013,T012,6129.236,N,02346.327,E,003.3,313.4,014.5,V*22
$GPGGA,125353,6126.995,N,02351.279,E,1,03,17.6,174.2,M,20.7,M,,*78
$GPGSA,A,2,,,,,,,,,26,28,29,,17.6,17.6,*18
$GPGSV,3,1,11,03,05,014,00,07,00,154,00,08,55,094,43,10,18,210,37*72
$GPGSV,3,2,11,15,13,334,43,18,17,328,42,19,22,036,42,21,06,300,00*70
$GPGSV,3,3,11,26,60,277,48,28,62,143,36,29,68,248,48,,,,*4F
$PGRME,69.1,M,,M,69.1,M*00
$GPGLL,6126.998,N,02351.278,E,125354,A*2D
$PGRMZ,572,f,2*1A
$PGRMM,WGS 84*06
$GPBOD,285.4,T,279.4,M,T012,T013*45
$GPWPL,6129.234,N,02346.317,E,T008*28
$GPRMC,125354,A,6127.001,N,02351.278,E,019.3,354.6,110805,006.0,E*7D
$GPRMB,A,1.53,R,T013,T012,6129.236,N,02346.327,E,003.3,313.3,014.5,V*22
$GPGGA,125354,6127.002,N,02351.277,E,1,03,17.6,174.2,M,20.7,M,,*77
$GPGSA,A,2,,,,,,,,,26,28,29,,17.6,17.6,*18
$GPGSV,3,1,11,03,05,014,00,07,00,154,00,08,55,094,44,10,18,210,35*77
$GPGSV,3,2,11,15,13,334,44,18,17,328,43,19,22,036,40,21,06,300,00*74
$GPGSV,3,3,11,26,60,277,49,28,62,143,36,29,68,248,48,,,,*4E
$PGRME,68.9,M,,M,68.9,M*00
$GPGLL,6127.006,N,02351.277,E,125355,A*2C
$PGRMZ,572,f,2*1A
$PGRMM,WGS 84*06
$GPBOD,285.4,T,279.4,M,T012,T013*45
$GPWPL,6157.564,N,02406.158,E,T007*26
$GPRMC,125356,A,6127.009,N,02351.277,E,019.3,354.5,110805,006.0,E*7B
$GPRMB,A,1.52,R,T013,T012,6129.236,N,02346.327,E,003.3,313.2,014.5,V*22
$GPGGA,125356,6127.010,N,02351.277,E,1,03,17.6,174.2,M,20.7,M,,*76
$GPGSA,A,2,,,,,,,,,26,28,29,,17.6,17.6,*18
$GPGSV,3,1,11,03,05,014,00,07,00,154,00,08,55,094,45,10,18,210,34*77
$GPGSV,3,2,11,15,13,334,43,18,17,328,43,19,22,036,39,21,06,300,00*7D
$GPGSV,3,3,11,26,60,277,49,28,62,143,38,29,68,248,49,,,,*41
$PGRME,68.9,M,,M,68.9,M*00
$GPGLL,6127.014,N,02351.276,E,125356,A*2D
$PGRMZ,572,f,2*1A
$PGRMM,WGS 84*06
$GPBOD,285.4,T,279.4,M,T012,T013*45
$GPWPL,6145.919,N,02345.544,E,T006*2B
$GPRMC,125357,A,6127.017,N,02351.276,E,019.7,354.4,110805,006.0,E*71
$GPRMB,A,1.51,R,T013,T012,6129.236,N,02346.327,E,003.3,313.1,014.8,V*2F
$GPGGA,125357,6127.018,N,02351.276,E,1,03,17.6,174.2,M,20.7,M,,*7E
$GPGSA,A,2,,,,,,,,,26,28,29,,17.6,17.6,*18
$GPGSV,3,1,11,03,05,014,00,07,00,154,00,08,55,094,45,10,18,210,34*77
$GPGSV,3,2,11,15,13,334,44,18,17,328,44,19,22,036,38,21,06,300,00*7C
$GPGSV,3,3,11,26,60,277,49,28,62,143,40,29,68,248,49,,,,*4E
$PGRME,68.9,M,,M,68.9,M*00
$GPGLL,6127.023,N,02351.275,E,125358,A*24
$PGRMZ,572,f,2*1A
$PGRMM,WGS 84*06
$GPBOD,285.4,T,279.4,M,T012,T013*45
$GPWPL,6130.198,N,02342.702,E,T005*2C
$GPRMC,125358,A,6127.025,N,02351.274,E,019.8,353.9,110805,006.0,E*78
$GPRMB,A,1.51,R,T013,T012,6129.236,N,02346.327,E,003.2,313.0,015.0,V*26
$GPGGA,125358,6127.026,N,02351.274,E,1,03,17.6,174.2,M,20.7,M,,*7E
$GPGSA,A,2,,,,,,,,,26,28,29,,17.6,17.6,*18
$GPGSV,3,1,11,03,05,014,00,07,00,154,00,08,55,094,43,10,18,210,35*70
$GPGSV,3,2,11,15,13,334,42,18,17,328,43,19,22,036,37,21,06,300,35*74
$GPGSV,3,3,11,26,60,277,49,28,62,143,40,29,68,248,49,,,,*4E
$PGRME,68.9,M,,M,68.9,M*00
$GPGLL,6127.030,N,02351.273,E,125359,A*21
$PGRMZ,572,f,2*1A
$PGRMM,WGS 84*06
$GPBOD,285.4,T,279.4,M,T012,T013*45
$GPWPL,6216.183,N,02619.685,E,T004*25
$GPRMC,125359,A,6127.033,N,02351.272,E,019.9,353.2,110805,006.0,E*72
$GPRMB,A,1.50,R,T013,T012,6129.236,N,02346.327,E,003.2,312.9,015.2,V*2D
$GPGGA,125359,6127.034,N,02351.272,E,1,03,17.6,174.2,M,20.7,M,,*7A
$GPGSA,A,2,,,,,,,,,26,28,29,,17.6,17.6,*18
$GPGSV,3,1,11,03,05,014,00,07,00,154,00,08,55,094,42,10,18,210,37*73
$GPGSV,3,2,11,15,13,334,41,18,17,328,42,19,22,036,36,21,06,300,35*77
$GPGSV,3,3,11,26,60,277,49,28,62,143,40,29,68,248,49,,,,*4E
$PGRME,68.9,M,,M,68.9,M*00
$GPGLL,6127.038,N,02351.271,E,125400,A*20
$PGRMZ,572,f,2*1A
$PGRMM,WGS 84*06
$GPBOD,285.4,T,279.4,M,T012,T013*45
$GPWPL,6215.064,N,02603.837,E,T003*25
$GPRMC,125401,A,6127.041,N,02351.270,E,020.1,352.7,110805,006.0,E*79
$GPRMB,A,1.49,R,T013,T012,6129.236,N,02346.327,E,003.2,312.8,015.4,V*22
$GPGGA,125401,6127.043,N,02351.269,E,1,03,17.5,174.2,M,20.7,M,,*79
$GPGSA,A,2,,,,,,,,,26,28,29,,17.5,17.5,*18
$GPGSV,3,1,11,03,05,014,00,07,00,154,00,08,55,094,42,10,18,210,36*72
$GPGSV,3,2,11,15,13,334,40,18,17,328,42,19,22,036,36,21,06,300,34*77
$GPGSV,3,3,11,26,60,277,49,28,62,143,40,29,68,248,49,,,,*4E
$PGRME,68.9,M,,M,68.9,M*00
$GPGLL,6127.046,N,02351.268,E,125402,A*23
$PGRMZ,572,f,2*1A
$PGRMM,WGS 84*06
$GPBOD,285.4,T,279.4,M,T012,T013*45
$GPWPL,6151.098,N,02510.924,E,T002*26
$GPRMC,125402,A,6127.049,N,02351.267,E,020.2,352.2,110805,006.0,E*72
$GPRMB,A,1.48,R,T013,T012,6129.236,N,02346.327,E,003.2,312.8,015.6,V*21
$GPGGA,125402,6127.050,N,02351.267,E,1,03,17.5,174.2,M,20.7,M,,*76
$GPGSA,A,2,,,,,,,,,26,28,29,,17.5,17.5,*18
$GPGSV,3,1,11,03,05,014,00,07,00,154,00,08,55,094,40,10,18,210,38*7E
$GPGSV,3,2,11,15,13,334,40,18,17,328,42,19,22,036,39,21,06,300,34*78
$GPGSV,3,3,11,26,58,279,49,28,62,143,41,29,68,248,49,,,,*4A
$PGRME,68.5,M,,M,68.5,M*00
$GPGLL,6127.054,N,02351.265,E,125403,A*2C
$PGRMZ,572,f,2*1A
$PGRMM,WGS 84*06
$GPBOD,285.4,T,279.4,M,T012,T013*45
$GPWPL,6129.271,N,02346.376,E,T001*27
$GPRMC,125404,A,6127.057,N,02351.265,E,020.3,351.6,110805,006.0,E*7F
$GPRMB,A,1.48,R,T013,T012,6129.236,N,02346.327,E,003.2,312.7,015.8,V*20
$GPGGA,125404,6127.058,N,02351.263,E,1,03,17.5,174.2,M,20.7,M,,*7C
$GPGSA,A,2,,,,,,,,,26,28,29,,17.5,17.5,*18
$GPGSV,3,1,11,03,05,014,00,07,00,154,00,08,55,094,39,10,18,210,39*71
$GPGSV,3,2,11,15,13,334,40,18,17,328,41,19,22,036,40,21,06,300,33*72
$GPGSV,3,3,11,26,58,279,50,28,62,143,41,29,68,248,49,,,,*42
$PGRME,68.5,M,,M,68.5,M*00
$GPGLL,6127.062,N,02351.262,E,125404,A*29
$PGRMZ,572,f,2*1A
$PGRMM,WGS 84*06
$GPBOD,285.4,T,279.4,M,T012,T013*45
$GPRTE,4,1,c,0,T030,T029,T028,T027,T026,T025,T024,T023,T022*49
$GPRTE,4,2,c,0,T021,T020,T019,T018,T017,T016,T015,T014,T013*4B
$GPRTE,4,3,c,0,T012,T011,T010,T009,T008,T007,T006,T005,T004*4B
$GPRTE,4,4,c,0,T003,T002,T001*4F
$GPWPL,6016.083,N,02452.500,E,T030*22
$GPRMC,125405,A,6127.067,N,02351.259,E,020.5,350.6,110805,006.0,E*75
$GPRMB,A,1.47,R,T013,T012,6129.236,N,02346.327,E,003.2,312.6,016.1,V*24
$GPGGA,125405,6127.068,N,02351.259,E,1,03,17.5,174.2,M,20.7,M,,*77
$GPGSA,A,2,,,,,,,,,26,28,29,,17.5,17.5,*18
$GPGSV,3,1,11,03,05,014,00,07,00,154,00,08,55,094,37,10,18,210,40*71
$GPGSV,3,2,11,15,13,334,38,18,17,328,41,19,22,036,39,21,06,300,34*74
$GPGSV,3,3,11,26,58,279,50,28,62,143,42,29,68,248,49,,,,*41
$PGRME,68.5,M,,M,68.5,M*00
$GPGLL,6127.072,N,02351.257,E,125406,A*2C
$PGRMZ,572,f,2*1A
$PGRMM,WGS 84*06
$GPBOD,285.4,T,279.4,M,T012,T013*45
$GPWPL,6123.283,N,02430.650,E,T029*2D
$GPRMC,125407,A,6127.075,N,02351.256,E,020.5,350.0,110805,006.0,E*7D
$GPRMB,A,1.46,R,T013,T012,6129.236,N,02346.327,E,003.2,312.5,016.3,V*24
$GPGGA,125407,6127.076,N,02351.255,E,1,03,17.5,174.2,M,20.7,M,,*76
$GPGSA,A,2,,,,,,,,,26,28,29,,17.5,17.5,*18
$GPGSV,3,1,11,03,05,014,00,07,00,154,00,08,55,094,36,10,18,210,40*70
$GPGSV,3,2,11,15,13,334,38,18,17,328,41,19,22,036,38,21,06,300,35*74
$GPGSV,3,3,11,26,58,279,50,28,62,143,41,29,68,248,49,,,,*42
$PGRME,68.5,M,,M,68.5,M*00
$GPGLL,6127.080,N,02351.253,E,125407,A*24
$PGRMZ,572,f,2*1A
$PGRMM,WGS 84*06
$GPBOD,285.4,T,279.4,M,T012,T013*45
$GPWPL,6023.283,N,02430.650,E,T028*2D
$GPRMC,125408,A,6127.084,N,02351.250,E,020.7,349.1,110805,006.0,E*71
$GPRMB,A,1.45,R,T013,T012,6129.236,N,02346.327,E,003.2,312.4,016.6,V*23
$GPGGA,125408,6127.085,N,02351.250,E,1,03,17.4,174.2,M,20.7,M,,*71
$GPGSA,A,2,,,,,,,,,26,28,29,,17.4,17.4,*18
$GPGSV,3,1,11,03,05,014,00,07,00,154,00,08,55,094,36,10,18,210,40*70
$GPGSV,3,2,11,15,13,334,38,18,17,328,40,19,22,036,37,21,06,300,34*7B
$GPGSV,3,3,11,26,58,279,50,28,62,143,40,29,68,248,49,,,,*43
$PGRME,68.5,M,,M,68.5,M*00
$GPGLL,6127.088,N,02351.248,E,125409,A*28
$PGRMZ,572,f,2*1A
$PGRMM,WGS 84*06
$GPBOD,285.4,T,279.4,M,T012,T013*45
$GPWPL,6123.283,N,02430.650,E,T027*23
$GPRMC,125409,A,6127.092,N,02351.246,E,020.8,348.7,110805,006.0,E*78
$GPRMB,A,1.45,R,T013,T012,6129.236,N,02346.327,E,003.2,312.3,016.6,V*24
$GPGGA,125409,6127.093,N,02351.245,E,1,03,17.4,174.2,M,20.7,M,,*73
$GPGSA,A,2,,,,,,,,,26,28,29,,17.4,17.4,*18
$GPGSV,3,1,11,03,05,014,00,07,00,154,00,08,55,094,35,10,18,210,40*73
$GPGSV,3,2,11,15,13,334,38,18,17,328,40,19,22,036,37,21,06,300,34*7B
$GPGSV,3,3,11,26,58,279,50,28,62,143,40,29,68,248,49,,,,*43
$PGRME,68.5,M,,M,68.5,M*00
$GPGLL,6127.097,N,02351.242,E,125410,A*24
$PGRMZ,572,f,2*1A
$PGRMM,WGS 84*06
$GPBOD,285.4,T,279.4,M,T012,T013*45
$GPWPL,6017.083,N,02452.500,E,T026*24
$GPRMC,125410,A,6127.100,N,02351.241,E,020.9,348.6,110805,006.0,E*7D
$GPRMB,A,1.44,R,T013,T012,6129.236,N,02346.327,E,003.2,312.2,016.8,V*2A
$GPGGA,125411,6127.102,N,02351.239,E,1,03,17.4,174.2,M,20.7,M,,*78
$GPGSA,A,2,,,,,,,,,26,28,29,,17.4,17.4,*18
$GPGSV,3,1,11,03,05,014,00,07,00,154,00,08,55,094,34,10,18,210,40*72
$GPGSV,3,2,11,15,13,334,37,18,17,328,40,19,22,036,35,21,06,300,00*71
$GPGSV,3,3,11,26,58,279,50,28,60,147,40,29,68,248,49,,,,*45
$PGRME,68.5,M,,M,68.5,M*00
$GPGLL,6127.105,N,02351.238,E,125411,A*22
$PGRMZ,572,f,2*1A
$PGRMM,WGS 84*06
$GPBOD,285.4,T,279.4,M,T012,T013*45
$GPWPL,6017.083,S,02453.500,E,T025*3B
$GPRMC,125412,A,6127.108,N,02351.236,E,021.0,348.2,110805,006.0,E*7B
$GPRMB,A,1.43,R,T013,T012,6129.236,N,02346.327,E,003.2,312.2,017.0,V*24
$GPGGA,125412,6127.110,N,02351.234,E,1,03,17.4,174.2,M,20.7,M,,*75
$GPGSA,A,2,,,,,,,,,26,28,29,,17.4,17.4,*18
$GPGSV,3,1,11,03,05,014,00,07,00,154,00,08,55,094,33,10,18,210,41*74
$GPGSV,3,2,11,15,13,334,39,18,17,328,40,19,22,036,34,21,06,300,00*7E
$GPGSV,3,3,11,26,58,279,50,28,60,147,40,29,68,248,49,,,,*45
$PGRME,68.5,M,,M,68.5,M*00
$GPGLL,6127.113,N,02351.233,E,125413,A*2C
$PGRMZ,572,f,2*1A
$PGRMM,WGS 84*06
$GPBOD,285.4,T,279.4,M,T012,T013*45
$GPWPL,6018.083,N,02453.500,E,T024*28
$GPRMC,125413,A,6127.116,N,02351.229,E,021.2,347.5,110805,006.0,E*71
$GPRMB,A,1.42,R,T013,T012,6129.236,N,02346.327,E,003.2,312.1,017.3,V*25
$GPGGA,125413,6127.118,N,02351.228,E,1,03,17.4,174.2,M,20.7,M,,*71
$GPGSA,A,2,,,,,,,,,26,28,29,,17.4,17.4,*18
$GPGSV,3,1,11,03,05,014,00,07,00,154,00,08,55,094,34,10,18,210,40*72
$GPGSV,3,2,11,15,13,334,40,18,17,328,40,19,22,036,38,21,06,300,00*7C
$GPGSV,3,3,11,26,58,279,50,28,60,147,40,29,68,248,49,,,,*45
$PGRME,68.0,M,,M,68.0,M*00
$GPGLL,6127.121,N,02351.225,E,125414,A*2D
$PGRMZ,572,f,2*1A
$PGRMM,WGS 84*06
$GPBOD,285.4,T,279.4,M,T012,T013*45
$GPWPL,6017.083,N,02452.500,W,T023*33
$GPRMC,125414,A,6127.124,N,02351.223,E,021.3,347.2,110805,006.0,E*7B
$GPRMB,A,1.42,R,T013,T012,6129.236,N,02346.327,E,003.2,312.0,017.4,V*23
$GPGGA,125415,6127.125,N,02351.223,E,1,03,17.4,174.2,M,20.7,M,,*72
$GPGSA,A,2,,,,,,,,,26,28,29,,17.3,17.3,*18
$GPGSV,3,1,11,03,05,014,00,07,00,154,00,08,55,094,35,10,18,210,40*73
$GPGSV,3,2,11,15,13,334,41,18,17,328,41,19,22,036,37,21,06,300,00*73
$GPGSV,3,3,11,26,58,279,49,28,60,147,41,29,68,254,48,,,,*40
$PGRME,68.0,M,,M,68.0,M*00
$GPGLL,6127.129,N,02351.219,E,125415,A*2B
$PGRMZ,572,f,2*1A
$PGRMM,WGS 84*06
$GPBOD,285.4,T,279.4,M,T012,T013*45
$GPWPL,6017.083,N,02555.500,E,T022*26
$GPRMC,125416,A,6127.134,N,02351.215,E,021.4,346.4,110805,006.0,E*7D
$GPRMB,A,1.41,R,T013,T012,6129.236,N,02346.327,E,003.2,311.9,017.5,V*2B
$GPGGA,125416,6127.135,N,02351.215,E,1,03,17.3,174.2,M,20.7,M,,*72
$GPGSA,A,2,,,,,,,,,26,28,29,,17.3,17.3,*18
$GPGSV,3,1,11,03,05,014,00,07,00,154,00,08,55,094,34,10,18,210,39*7C
$GPGSV,3,2,11,15,13,334,41,18,17,328,40,19,22,036,36,21,06,300,00*73
$GPGSV,3,3,11,26,58,279,49,28,60,147,40,29,68,254,48,,,,*41
$PGRME,68.0,M,,M,68.0,M*00
$GPGLL,6127.138,N,02351.213,E,125417,A*23
$PGRMZ,572,f,2*1A
$PGRMM,WGS 84*06
$GPBOD,285.4,T,279.4,M,T012,T013*45
$GPWPL,6017.083,N,02452.500,E,T021*23
$GPRMC,125417,A,6127.142,N,02351.210,E,021.5,346.2,110805,006.0,E*7F
$GPRMB,A,1.40,R,T013,T012,6129.236,N,02346.327,E,003.1,311.9,017.8,V*24
$GPGGA,125417,6127.143,N,02351.209,E,1,03,17.3,174.2,M,20.7,M,,*7F
$GPGSA,A,2,,,,,,,,,26,28,29,,17.3,17.3,*18
$GPGSV,3,1,11,03,05,014,00,07,00,154,00,08,55,094,33,10,18,210,38*7A
$GPGSV,3,2,11,15,13,334,41,18,17,328,40,19,22,037,36,21,06,300,00*72
$GPGSV,3,3,11,26,58,279,49,28,60,147,39,29,68,254,48,,,,*4F
$PGRME,68.0,M,,M,68.0,M*00
$GPGLL,6127.146,N,02351.207,E,125418,A*20
$PGRMZ,572,f,2*1A
$PGRMM,WGS 84*06
$GPBOD,285.4,T,279.4,M,T012,T013*45
$GPWPL,6116.083,N,02452.500,E,T020*22
$GPRMC,125418,A,6127.150,N,02351.203,E,021.5,345.7,110805,006.0,E*77
$GPRMB,A,1.39,R,T013,T012,6129.236,N,02346.327,E,003.1,311.8,017.9,V*2A
$GPGGA,125419,6127.151,N,02351.203,E,1,03,17.3,174.2,M,20.7,M,,*78
$GPGSA,A,2,,,,,,,,,26,28,29,,17.3,17.3,*18
$GPGSV,3,1,11,03,05,014,00,07,00,154,00,08,55,094,33,10,18,210,37*75
$GPGSV,3,2,11,15,13,334,41,18,17,328,41,19,22,037,36,21,06,300,00*73
$GPGSV,3,3,11,26,58,279,50,28,60,147,39,29,68,254,48,,,,*47
$PGRME,68.0,M,,M,68.0,M*00
$GPGLL,6127.155,N,02351.199,E,125419,A*27
$PGRMZ,572,f,2*1A
$PGRMM,WGS 84*06
$GPBOD,285.4,T,279.4,M,T012,T013*45
$GPWPL,6016.083,S,02452.500,E,T019*34
$GPRMC,125420,A,6127.158,N,02351.197,E,021.6,345.3,110805,006.0,E*7D
$GPRMB,A,1.39,R,T013,T012,6129.236,N,02346.327,E,003.1,311.7,018.0,V*23
$GPGGA,125420,6127.159,N,02351.194,E,1,03,17.3,174.2,M,20.7,M,,*77
$GPGSA,A,2,,,,,,,,,26,28,29,,17.3,17.3,*18
$GPGSV,3,1,11,03,05,014,00,07,00,154,00,08,55,094,34,10,18,210,36*73
$GPGSV,3,2,11,15,13,334,41,18,17,328,41,19,22,037,35,21,06,300,00*70
$GPGSV,3,3,11,26,58,279,50,28,60,147,39,29,68,254,48,,,,*47
$PGRME,68.0,M,,M,68.0,M*00
$GPGLL,6127.163,N,02351.192,E,125420,A*23
$PGRMZ,572,f,2*1A
$PGRMM,WGS 84*06
$GPBOD,285.4,T,279.4,M,T012,T013*45
$GPWPL,6016.083,N,02452.500,E,T018*28
$GPRMC,125421,A,6127.166,N,02351.188,E,021.8,344.6,110805,006.0,E*75
$GPRMB,A,1.38,R,T013,T012,6129.236,N,02346.327,E,003.1,311.7,018.3,V*21
$GPGGA,125421,6127.167,N,02351.188,E,1,03,17.3,174.2,M,20.7,M,,*76
$GPGSA,A,2,,,,,,,,,26,28,29,,17.3,17.3,*18
$GPGSV,3,1,11,03,05,014,00,07,00,154,00,08,55,094,34,10,18,210,36*73
$GPGSV,3,2,11,15,13,334,40,18,17,328,42,19,22,037,35,21,06,300,00*72
$GPGSV,3,3,11,26,58,279,50,28,60,147,39,29,68,254,48,,,,*47
$PGRME,68.0,M,,M,68.0,M*00
$GPGLL,6127.171,N,02351.186,E,125422,A*27
$PGRMZ,572,f,2*1A
$PGRMM,WGS 84*06
$GPBOD,285.4,T,279.4,M,T012,T013*45
$GPWPL,6013.283,N,02456.650,E,T017*22
$GPRMC,125422,A,6127.174,N,02351.182,E,021.8,344.0,110805,006.0,E*79
$GPRMB,A,1.37,R,T013,T012,6129.236,N,02346.327,E,003.1,311.6,018.4,V*28
$GPGGA,125422,6127.175,N,02351.181,E,1,03,17.3,174.2,M,20.7,M,,*7F
$GPGSA,A,2,,,,,,,,,26,28,29,,17.3,17.3,*18
$GPGSV,3,1,11,03,05,014,00,07,00,154,00,08,55,094,33,10,18,210,35*77
$GPGSV,3,2,11,15,13,334,38,18,17,328,42,19,22,037,34,21,06,300,00*7C
$GPGSV,3,3,11,26,58,279,51,28,60,147,38,29,68,254,49,,,,*46
$PGRME,68.0,M,,M,68.0,M*00
$GPGLL,6127.179,N,02351.176,E,125423,A*21
$PGRMZ,572,f,2*1A
$PGRMM,WGS 84*06
$GPBOD,285.4,T,279.4,M,T012,T013*45
$GPWPL,6123.283,N,02430.650,E,T016*21
$GPRMC,125424,A,6127.182,N,02351.174,E,021.9,343.6,110805,006.0,E*7F
$GPRMB,A,1.37,R,T013,T012,6129.236,N,02346.327,E,003.1,311.5,018.6,V*29
$GPGGA,125424,6127.184,N,02351.171,E,1,03,17.2,174.2,M,20.7,M,,*79
$GPGSA,A,2,,,,,,,,,26,28,29,,17.2,17.2,*18
$GPGSV,3,1,11,03,05,014,00,07,00,154,00,08,55,094,36,10,18,210,34*73
$GPGSV,3,2,11,15,13,334,38,18,17,328,41,19,22,037,34,21,06,300,00*7F
$GPGSV,3,3,11,26,58,279,51,28,60,147,38,29,68,254,49,,,,*46
$PGRME,68.0,M,,M,68.0,M*00
$GPGLL,6127.187,N,02351.169,E,125424,A*29
$PGRMZ,572,f,2*1A
$PGRMM,WGS 84*06
$GPBOD,285.4,T,279.4,M,T012,T013*45
$GPWPL,0000.000,N,00000.000,W,T015*39
$GPRMC,125425,A,6127.190,N,02351.167,E,021.9,342.9,110805,006.0,E*71
$GPRMB,A,1.36,R,T013,T012,6129.236,N,02346.327,E,003.1,311.4,018.7,V*28
$GPGGA,125425,6127.191,N,02351.166,E,1,03,17.2,174.2,M,20.7,M,,*7A
$GPGSA,A,2,,,,,,,,,26,28,29,,17.2,17.2,*18
$GPGSV,3,1,11,03,05,014,00,07,00,154,00,08,55,094,38,10,18,210,34*7D
$GPGSV,3,2,11,15,13,334,37,18,17,328,41,19,22,037,36,21,06,300,00*72
$GPGSV,3,3,11,26,58,279,51,28,60,147,39,29,68,254,49,,,,*47
$PGRME,67.4,M,,M,67.4,M*00
$GPGLL,6127.195,N,02351.161,E,125426,A*20
$PGRMZ,572,f,2*1A
$PGRMM,WGS 84*06
$GPBOD,285.4,T,279.4,M,T012,T013*45
$GPWPL,0009.000,N,02430.650,E,T014*25
$GPRMC,125426,A,6127.198,N,02351.156,E,021.9,341.9,110805,006.0,E*7B
$GPRMB,A,1.35,R,T013,T012,6129.236,N,02346.327,E,003.1,311.4,018.9,V*25
$GPGGA,125426,6127.199,N,02351.156,E,1,03,17.2,174.2,M,20.7,M,,*72
$GPGSA,A,2,,,,,,,,,26,28,29,,17.2,17.2,*18
$GPGSV,3,1,11,03,05,014,00,07,00,154,00,08,55,094,40,10,18,210,34*72
$GPGSV,3,2,11,15,13,334,36,18,17,328,41,19,22,037,35,21,06,300,00*70
$GPGSV,3,3,11,26,58,279,51,28,60,147,39,29,68,254,50,,,,*4F
$PGRME,67.4,M,,M,67.4,M*00
$GPGLL,6127.203,N,02351.153,E,125427,A*2C
$PGRMZ,572,f,2*1A
$PGRMM,WGS 84*06
$GPBOD,285.4,T,279.4,M,T012,T013*45
$GPWPL,6123.285,N,02430.651,E,T013*23
$GPRMC,125427,A,6127.206,N,02351.148,E,021.9,341.4,110805,006.0,E*7C
$GPRMB,A,1.35,R,T013,T012,6129.236,N,02346.327,E,003.1,311.3,018.9,V*22
$GPGGA,125428,6127.207,N,02351.147,E,1,03,17.2,174.2,M,20.7,M,,*78
$GPGSA,A,2,,,,,,,,,26,28,29,,17.2,17.2,*18
$GPGSV,3,1,11,03,05,014,00,07,00,154,00,08,55,094,42,10,18,210,35*71
$GPGSV,3,2,11,15,13,334,35,18,17,328,41,19,22,037,37,21,06,300,00*71
$GPGSV,3,3,11,26,58,279,51,28,60,147,42,29,68,254,50,,,,*43
$PGRME,67.4,M,,M,67.4,M*00
$GPGLL,6127.211,N,02351.142,E,125428,A*20
$PGRMZ,572,f,2*1A
$PGRMM,WGS 84*06
$GPBOD,285.4,T,279.4,M,T012,T013*45
$GPWPL,6129.236,N,02346.327,E,T012*22
$GPRMC,125429,A,6127.214,N,02351.140,E,021.8,341.0,110805,006.0,E*7C
$GPRMB,A,1.34,R,T013,T012,6129.236,N,02346.327,E,003.1,311.3,019.0,V*2B
$GPGGA,125429,6127.215,N,02351.136,E,1,03,17.2,174.2,M,20.7,M,,*7C
$GPGSA,A,2,,,,,,,,,26,28,29,,17.2,17.2,*18
$GPGSV,3,1,11,03,05,014,00,07,00,154,00,08,55,094,42,10,18,210,35*71
$GPGSV,3,2,11,15,13,334,35,18,17,328,41,19,22,037,36,21,06,300,00*70
$GPGSV,3,3,11,26,58,279,51,28,60,147,42,29,68,254,49,,,,*4B
$PGRME,67.4,M,,M,67.4,M*00
$GPGLL,6127.218,N,02351.134,E,125429,A*29
$PGRMZ,572,f,2*1A
$PGRMM,WGS 84*06
$GPBOD,285.4,T,279.4,M,T012,T013*45
$GPWPL,6114.236,N,02346.327,E,T011*2F
$GPRMC,125429,A,6127.221,N,02351.132,E,021.7,340.6,110805,006.0,E*77
$GPRMB,A,1.34,R,T013,T012,6129.236,N,02346.327,E,003.1,311.2,019.0,V*2A
$GPGGA,125430,6127.222,N,02351.128,E,1,03,17.2,174.2,M,20.7,M,,*7F
$GPGSA,A,2,,,,,,,,,26,28,29,,17.2,17.2,*18
$GPGSV,3,1,11,03,05,014,00,07,00,154,00,08,55,094,43,10,18,210,34*71
$GPGSV,3,2,11,15,13,334,34,18,17,328,41,19,22,037,35,21,06,300,00*72
$GPGSV,3,3,11,26,58,279,51,28,60,147,42,29,68,254,49,,,,*4B
$PGRME,67.4,M,,M,67.4,M*00
$GPGLL,6127.226,N,02351.125,E,125430,A*2C
$PGRMZ,572,f,2*1A
$PGRMM,WGS 84*06
$GPBOD,285.4,T,279.4,M,T012,T013*45
$GPWPL,6220.236,N,02346.327,E,T010*2A
$GPRMC,125431,A,6127.229,N,02351.120,E,021.7,339.9,110805,006.0,E*74
$GPRMB,A,1.33,R,T013,T012,6129.236,N,02346.327,E,003.1,311.2,019.0,V*2D
$GPGGA,125431,6127.230,N,02351.119,E,1,03,17.1,174.2,M,20.7,M,,*7C
$GPGSA,A,2,,,,,,,,,26,28,29,,17.1,17.1,*18
$GPGSV,3,1,11,03,05,014,00,07,00,154,00,08,55,094,43,10,18,210,33*76
$GPGSV,3,2,11,15,13,334,34,18,17,328,42,19,22,037,38,21,06,300,00*7C
$GPGSV,3,3,11,26,58,279,51,28,60,147,43,29,68,254,49,,,,*4A
$PGRME,67.4,M,,M,67.4,M*00
$GPGLL,6127.233,N,02351.114,E,125432,A*28
$PGRMZ,572,f,2*1A
$PGRMM,WGS 84*06
$GPBOD,285.4,T,279.4,M,T012,T013*45
$GPWPL,6120.236,N,02346.327,E,T009*21
$GPRMC,125433,A,6127.236,N,02351.111,E,021.6,339.5,110805,006.0,E*77
$GPRMB,A,1.32,R,T013,T012,6129.236,N,02346.327,E,003.0,311.1,019.0,V*2E
$GPGGA,125433,6127.237,N,02351.111,E,1,03,17.1,174.2,M,20.7,M,,*71
$GPGSA,A,2,,,,,,,,,26,28,29,,17.1,17.1,*18
$GPGSV,3,1,11,03,05,014,00,07,00,154,00,08,55,094,43,10,18,210,33*76
$GPGSV,3,2,11,15,13,334,33,18,17,328,42,19,22,037,37,21,06,300,00*74
$GPGSV,3,3,11,26,58,279,51,28,60,147,43,29,68,254,49,,,,*4A
$PGRME,67.4,M,,M,67.4,M*00
$GPGLL,6127.240,N,02351.105,E,125433,A*2D
$PGRMZ,572,f,2*1A
$PGRMM,WGS 84*06
$GPBOD,285.4,T,279.4,M,T012,T013*45
$GPWPL,6129.234,N,02346.317,E,T008*28
$GPRMC,125434,A,6127.243,N,02351.100,E,021.6,338.9,110805,006.0,E*7F
$GPRMB,A,1.32,R,T013,T012,6129.236,N,02346.327,E,003.0,311.1,019.1,V*2F
$GPGGA,125434,6127.244,N,02351.099,E,1,03,17.1,174.2,M,20.7,M,,*73
$GPGSA,A,2,,,,,,,,,26,28,29,,17.1,17.1,*18
$GPGSV,3,1,11,03,05,014,00,07,00,154,00,08,55,094,43,10,18,210,33*76
$GPGSV,3,2,11,15,13,334,33,18,17,328,41,19,22,037,37,21,06,300,00*77
$GPGSV,3,3,11,26,58,279,52,28,60,147,43,29,68,254,49,,,,*49
$PGRME,67.4,M,,M,67.4,M*00
$GPGLL,6127.248,N,02351.093,E,125435,A*2D
$PGRMZ,572,f,2*1A
$PGRMM,WGS 84*06
$GPBOD,285.4,T,279.4,M,T012,T013*45
$GPWPL,6157.564,N,02406.158,E,T007*26
$GPRMC,125435,A,6127.250,N,02351.091,E,021.5,338.5,110805,006.0,E*7A
$GPRMB,A,1.31,R,T013,T012,6129.236,N,02346.327,E,003.0,311.0,019.1,V*2D
$GPGGA,125435,6127.251,N,02351.090,E,1,03,17.1,174.2,M,20.7,M,,*7F
$GPGSA,A,2,,,,,,,,,26,28,29,,17.1,17.1,*18
$GPGSV,3,1,11,03,05,014,00,07,00,154,00,08,55,094,43,10,18,210,32*77
$GPGSV,3,2,11,15,13,334,32,18,17,328,41,19,22,037,38,21,06,300,00*79
$GPGSV,3,3,11,26,58,279,52,28,60,147,43,29,68,254,49,,,,*49
$PGRME,66.9,M,,M,66.9,M*00
$GPGLL,6127.255,N,02351.084,E,125436,A*24
$PGRMZ,572,f,2*1A
$PGRMM,WGS 84*06
$GPBOD,285.4,T,279.4,M,T012,T013*45
$GPWPL,6145.919,N,02345.544,E,T006*2B
$GPRMC,125436,A,6127.257,N,02351.082,E,021.5,338.1,110805,006.0,E*78
$GPRMB,A,1.31,R,T013,T012,6129.236,N,02346.327,E,003.0,311.0,019.1,V*2D
$GPGGA,125437,6127.259,N,02351.081,E,1,03,17.1,174.2,M,20.7,M,,*75
$GPGSA,A,2,,,,,,,,,26,28,29,,17.1,17.1,*18
$GPGSV,3,1,11,03,05,014,00,07,00,154,00,08,55,094,43,10,18,210,32*77
$GPGSV,3,2,11,15,13,334,32,18,17,328,41,19,22,037,37,21,06,300,00*76
$GPGSV,3,3,11,26,58,279,52,28,60,147,43,29,68,254,49,,,,*49
$PGRME,66.9,M,,M,66.9,M*00
$GPGLL,6127.262,N,02351.075,E,125437,A*2F
$PGRMZ,572,f,2*1A
$PGRMM,WGS 84*06
$GPBOD,285.4,T,279.4,M,T012,T013*45
$GPWPL,6130.198,N,02342.702,E,T005*2C
$GPRMC,125438,A,6127.264,N,02351.073,E,021.4,337.7,110805,006.0,E*70
$GPRMB,A,1.30,R,T013,T012,6129.236,N,02346.327,E,003.0,311.0,019.1,V*2C
$GPGGA,125438,6127.266,N,02351.069,E,1,03,17.1,174.2,M,20.7,M,,*70
$GPGSA,A,2,,,,,,,,,26,28,29,,17.1,17.1,*18
$GPGSV,3,1,11,03,04,013,00,07,00,154,00,08,55,094,43,10,18,210,32*71
$GPGSV,3,2,11,15,13,334,32,18,17,328,42,19,22,037,38,21,06,300,00*7A
$GPGSV,3,3,11,26,58,279,51,28,60,147,43,29,68,254,49,,,,*4A
$PGRME,66.9,M,,M,66.9,M*00
$GPGLL,6127.269,N,02351.063,E,125439,A*2D
$PGRMZ,572,f,2*1A
$PGRMM,WGS 84*06
$GPBOD,285.4,T,279.4,M,T012,T013*45
$GPWPL,6216.183,N,02619.685,E,T004*25
$GPRMC,125439,A,6127.271,N,02351.061,E,021.4,337.1,110805,006.0,E*70
$GPRMB,A,1.30,R,T013,T012,6129.236,N,02346.327,E,003.0,310.9,019.2,V*27
$GPGGA,125439,6127.272,N,02351.060,E,1,03,17.0,174.2,M,20.7,M,,*7C
$GPGSA,A,2,,,,,,,,,26,28,29,,17.0,17.0,*18
$GPGSV,3,1,11,03,04,013,00,07,00,154,00,08,55,094,43,10,18,210,31*72
$GPGSV,3,2,11,15,13,334,32,18,17,328,42,19,22,037,39,21,06,300,00*7B
$GPGSV,3,3,11,26,58,279,51,28,60,147,43,29,68,254,49,,,,*4A
$PGRME,66.9,M,,M,66.9,M*00
$GPGLL,6127.276,N,02351.054,E,125440,A*29
$PGRMZ,572,f,2*1A
$PGRMM,WGS 84*06
$GPBOD,285.4,T,279.4,M,T012,T013*45
$GPWPL,6215.064,N,02603.837,E,T003*25
$GPRMC,125440,A,6127.278,N,02351.052,E,021.4,336.8,110805,006.0,E*7F
$GPRMB,A,1.29,R,T013,T012,6129.236,N,02346.327,E,003.0,310.9,019.3,V*2E
$GPGGA,125441,6127.279,N,02351.048,E,1,03,17.0,174.2,M,20.7,M,,*72
$GPGSA,A,2,,,,,,,,,26,28,29,,17.0,17.0,*18
$GPGSV,3,1,11,03,04,013,00,07,00,154,00,08,55,094,43,10,18,210,35*76
$GPGSV,3,2,11,15,13,334,30,18,17,328,42,19,22,037,40,21,06,300,00*77
$GPGSV,3,3,11,26,58,279,52,28,60,147,43,29,68,254,49,,,,*49
$PGRME,66.9,M,,M,66.9,M*00
$GPGLL,6127.282,N,02351.045,E,125441,A*23
$PGRMZ,572,f,2*1A
$PGRMM,WGS 84*06
$GPBOD,285.4,T,279.4,M,T012,T013*45
$GPWPL,6151.098,N,02510.924,E,T002*26
$GPRMC,125442,A,6127.285,N,02351.040,E,021.4,336.2,110805,006.0,E*76
$GPRMB,A,1.28,R,T013,T012,6129.236,N,02346.327,E,003.0,310.8,019.3,V*2E
$GPGGA,125442,6127.286,N,02351.039,E,1,03,17.0,174.2,M,20.7,M,,*77
$GPGSA,A,2,,,,,,,,,26,28,29,,17.0,17.0,*18
$GPGSV,3,1,11,03,04,013,00,07,00,154,00,08,55,094,43,10,18,210,37*74
$GPGSV,3,2,11,15,13,334,30,18,17,328,43,19,22,037,39,21,06,300,00*78
$GPGSV,3,3,11,26,58,279,51,28,60,147,43,29,68,254,48,,,,*4B
$PGRME,66.9,M,,M,66.9,M*00
$GPGLL,6127.289,N,02351.035,E,125443,A*2D
$PGRMZ,572,f,2*1A
$PGRMM,WGS 84*06
$GPBOD,285.4,T,279.4,M,T012,T013*45
$GPWPL,6129.271,N,02346.376,E,T001*27
$GPRMC,125443,A,6127.292,N,02351.030,E,021.4,335.7,110805,006.0,E*70
$GPRMB,A,1.28,R,T013,T012,6129.236,N,02346.327,E,003.0,310.8,019.5,V*28
$GPGGA,125443,6127.293,N,02351.029,E,1,03,17.0,174.2,M,20.7,M,,*73
$GPGSA,A,2,,,,,,,,,26,28,29,,17.0,17.0,*18
$GPGSV,3,1,11,03,04,013,00,07,00,154,00,08,55,094,41,10,18,210,36*77
$GPGSV,3,2,11,15,13,334,33,18,17,328,43,19,22,037,39,21,06,300,00*7B
$GPGSV,3,3,11,26,58,279,51,28,60,147,44,29,68,254,48,,,,*4C
$PGRME,66.9,M,,M,66.9,M*00
$GPGLL,6127.296,N,02351.023,E,125444,A*23
$PGRMZ,572,f,2*1A
$PGRMM,WGS 84*06
$GPBOD,285.4,T,279.4,M,T012,T013*45
$GPRTE,4,1,c,0,T030,T029,T028,T027,T026,T025,T024,T023,T022*49
$GPRTE,4,2,c,0,T021,T020,T019,T018,T017,T016,T015,T014,T013*4B
$GPRTE,4,3,c,0,T012,T011,T010,T009,T008,T007,T006,T005,T004*4B
$GPRTE,4,4,c,0,T003,T002,T001*4F
$GPWPL,6016.083,N,02452.500,E,T030*22
$GPRMC,125445,A,6127.301,N,02351.016,E,021.6,335.7,110805,006.0,E*7B
$GPRMB,A,1.27,R,T013,T012,6129.236,N,02346.327,E,003.0,310.8,019.6,V*24
$GPGGA,125445,6127.302,N,02351.015,E,1,03,17.0,174.2,M,20.7,M,,*73
$GPGSA,A,2,,,,,,,,,26,28,29,,17.0,17.0,*18
$GPGSV,3,1,11,03,04,013,00,07,00,154,00,08,55,094,41,10,18,210,37*76
$GPGSV,3,2,11,15,13,334,39,18,17,328,44,19,22,037,41,21,06,300,00*79
$GPGSV,3,3,11,26,58,279,50,28,60,147,42,29,68,254,49,,,,*4A
$PGRME,66.9,M,,M,66.9,M*00
$GPGLL,6127.305,N,02351.012,E,125446,A*28
$PGRMZ,572,f,2*1A
$PGRMM,WGS 84*06
$GPBOD,285.4,T,279.4,M,T012,T013*45
$GPWPL,6123.283,N,02430.650,E,T029*2D
$GPRMC,125446,A,6127.308,N,02351.007,E,021.7,335.9,110805,006.0,E*7E
$GPRMB,A,1.27,R,T013,T012,6129.236,N,02346.327,E,003.0,310.7,019.6,V*2B
$GPGGA,125446,6127.309,N,02351.006,E,1,03,17.0,174.2,M,20.7,M,,*79
$GPGSA,A,2,,,,,,,,,26,28,29,,17.0,17.0,*18
$GPGSV,3,1,11,03,04,013,00,07,00,154,00,08,55,094,42,10,18,210,35*77
$GPGSV,3,2,11,15,13,334,40,18,17,328,44,19,22,037,43,21,06,300,00*75
$GPGSV,3,3,11,26,58,279,50,28,60,147,42,29,68,254,49,,,,*4A
$PGRME,66.3,M,,M,66.3,M*00
$GPGLL,6127.313,N,02351.000,E,125447,A*2D
$PGRMZ,572,f,2*1A
$PGRMM,WGS 84*06
$GPBOD,285.4,T,279.4,M,T012,T013*45
$GPWPL,6023.283,N,02430.650,E,T028*2D
$GPRMC,125447,A,6127.315,N,02350.998,E,021.8,336.2,110805,006.0,E*7A
$GPRMB,A,1.26,R,T013,T012,6129.236,N,02346.327,E,003.0,310.7,019.7,V*2B
$GPGGA,125448,6127.316,N,02350.997,E,1,03,16.9,174.2,M,20.7,M,,*71
$GPGSA,A,2,,,,,,,,,26,28,29,,16.9,16.9,*18
$GPGSV,3,1,11,03,04,013,00,07,00,154,00,08,55,094,45,10,18,210,36*73
$GPGSV,3,2,11,15,13,334,39,18,17,328,43,19,22,037,44,21,06,300,00*7B
$GPGSV,3,3,11,26,58,279,49,28,60,147,43,29,68,254,49,,,,*43
$PGRME,66.3,M,,M,66.3,M*00
$GPGLL,6127.320,N,02350.992,E,125448,A*21
$PGRMZ,572,f,2*1A
$PGRMM,WGS 84*06
$GPBOD,285.4,T,279.4,M,T012,T013*45
$GPWPL,6123.283,N,02430.650,E,T027*23
$GPRMC,125449,A,6127.323,N,02350.989,E,021.9,336.4,110805,006.0,E*76
$GPRMB,A,1.26,R,T013,T012,6129.236,N,02346.327,E,002.9,310.6,019.7,V*22
$GPGGA,125449,6127.324,N,02350.988,E,1,03,16.9,174.2,M,20.7,M,,*7F
$GPGSA,A,2,,,,,,,,,26,28,29,,16.9,16.9,*18
$GPGSV,3,1,11,03,04,013,00,07,00,154,00,08,55,094,44,10,18,210,38*7C
$GPGSV,3,2,11,15,13,334,38,18,17,328,42,19,22,037,43,21,06,300,00*7C
$GPGSV,3,3,11,26,58,279,33,28,60,147,42,29,68,254,35,,,,*44
$PGRME,66.3,M,,M,66.3,M*00
$GPGLL,6127.327,N,02350.985,E,125449,A*21
$PGRMZ,572,f,2*1A
$PGRMM,WGS 84*06
$GPBOD,285.4,T,279.4,M,T012,T013*45
$GPWPL,6017.083,N,02452.500,E,T026*24
$GPRMC,125450,A,6127.330,N,02350.983,E,021.9,336.4,110805,006.0,E*76
$GPRMB,A,1.25,R,T013,T012,6129.236,N,02346.327,E,002.9,310.5,019.7,V*22
$GPGGA,125450,6127.331,N,02350.982,E,1,03,16.9,174.2,M,20.7,M,,*79
$GPGSA,A,2,,,,,,,,,26,28,29,,16.9,16.9,*18
$GPGSV,3,1,11,03,04,013,00,07,00,154,00,08,55,094,43,10,18,210,37*74
$GPGSV,3,2,11,15,13,334,40,18,17,328,43,19,22,037,43,21,06,300,00*72
$GPGSV,3,3,11,26,58,279,33,28,60,147,41,29,68,254,34,,,,*46
$PGRME,66.3,M,,M,66.3,M*00
$GPGLL,6127.335,N,02350.978,E,125450,A*28
$PGRMZ,572,f,2*1A
$PGRMM,WGS 84*06
$GPBOD,285.4,T,279.4,M,T012,T013*45
$GPWPL,6017.083,S,02453.500,E,T025*3B
$GPRMC,125451,A,6127.338,N,02350.974,E,022.0,336.7,110805,006.0,E*7E
$GPRMB,A,1.24,R,T013,T012,6129.236,N,02346.327,E,002.9,310.5,019.7,V*23
$GPGGA,125451,6127.339,N,02350.973,E,1,03,16.9,174.2,M,20.7,M,,*7E
$GPGSA,A,2,,,,,,,,,26,28,29,,16.9,16.9,*18
$GPGSV,3,1,11,03,04,013,00,07,00,154,00,08,55,094,45,10,18,210,37*72
$GPGSV,3,2,11,15,13,334,40,18,17,328,43,19,22,037,41,21,06,300,00*70
$GPGSV,3,3,11,26,58,279,42,28,60,147,43,29,68,254,45,,,,*44
$PGRME,66.1,M,,M,66.1,M*00
$GPGLL,6127.343,N,02350.969,E,125452,A*2B
$PGRMZ,572,f,2*1A
$PGRMM,WGS 84*06
$GPBOD,285.4,T,279.4,M,T012,T013*45
$GPWPL,6018.083,N,02453.500,E,T024*28
$GPRMC,125453,A,6127.346,N,02350.966,E,022.1,337.0,110805,006.0,E*71
$GPRMB,A,1.24,R,T013,T012,6129.236,N,02346.327,E,002.9,310.4,019.8,V*2D
$GPGGA,125453,6127.347,N,02350.964,E,1,03,16.9,174.2,M,20.7,M,,*73
$GPGSA,A,2,,,,,,,,,26,28,29,,16.9,16.9,*18
$GPGSV,3,1,11,03,04,013,00,07,00,154,00,08,55,094,46,10,18,210,36*70
$GPGSV,3,2,11,15,13,334,40,18,17,328,43,19,22,037,40,21,06,300,00*71
$GPGSV,3,3,11,26,58,279,44,28,60,147,43,29,68,254,47,,,,*40
$PGRME,66.1,M,,M,66.1,M*00
$GPGLL,6127.351,N,02350.961,E,125453,A*21
$PGRMZ,572,f,2*1A
$PGRMM,WGS 84*06
$GPBOD,285.4,T,279.4,M,T012,T013*45
$GPWPL,6017.083,N,02452.500,W,T023*33
$GPRMC,125454,A,6127.354,N,02350.957,E,022.4,337.6,110805,006.0,E*74
$GPRMB,A,1.23,R,T013,T012,6129.236,N,02346.327,E,002.9,310.3,019.9,V*2C
$GPGGA,125454,6127.355,N,02350.956,E,1,03,16.9,174.2,M,20.7,M,,*76
$GPGSA,A,2,,,,,,,,,26,28,29,,16.9,16.9,*18
$GPGSV,3,1,11,03,04,013,00,07,00,154,00,08,55,094,46,10,18,210,36*70
$GPGSV,3,2,11,15,13,334,38,18,17,328,42,19,22,037,39,21,06,300,00*71
$GPGSV,3,3,11,26,58,279,45,28,60,147,43,29,68,254,48,,,,*4E
$PGRME,66.1,M,,M,66.1,M*00
$GPGLL,6127.359,N,02350.953,E,125455,A*2E
$PGRMZ,572,f,2*1A
$PGRMM,WGS 84*06
$GPBOD,285.4,T,279.4,M,T012,T013*45
$GPWPL,6017.083,N,02555.500,E,T022*26
$GPRMC,125455,A,6127.362,N,02350.949,E,022.5,337.9,110805,006.0,E*71
$GPRMB,A,1.22,R,T013,T012,6129.236,N,02346.327,E,002.9,310.3,019.9,V*2D
$GPGGA,125455,6127.363,N,02350.948,E,1,03,16.8,174.2,M,20.7,M,,*7C
$GPGSA,A,2,,,,,,,,,26,28,29,,16.8,16.8,*18
$GPGSV,3,1,11,03,04,013,00,07,00,154,00,08,55,094,46,10,18,210,37*71
$GPGSV,3,2,11,15,13,334,38,18,17,328,42,19,22,037,39,21,06,300,00*71
$GPGSV,3,3,11,26,58,279,46,28,60,147,43,29,68,254,48,,,,*4D
$PGRME,66.1,M,,M,66.1,M*00
$GPGLL,6127.367,N,02350.943,E,125456,A*21
$PGRMZ,572,f,2*1A
$PGRMM,WGS 84*06
$GPBOD,285.4,T,279.4,M,T012,T013*45
$GPWPL,6017.083,N,02452.500,E,T021*23
$GPRMC,125456,A,6127.370,N,02350.941,E,022.7,338.4,110805,006.0,E*79
$GPRMB,A,1.22,R,T013,T012,6129.236,N,02346.327,E,002.9,310.2,020.0,V*2F
$GPGGA,125457,6127.372,N,02350.940,E,1,03,16.8,174.2,M,20.7,M,,*76
$GPGSA,A,2,,,,,,,,,26,28,29,,16.8,16.8,*18
$GPGSV,3,1,11,03,04,013,00,07,00,154,00,08,55,094,47,10,18,210,35*72
$GPGSV,3,2,11,15,13,334,38,18,17,328,43,19,22,037,40,21,06,300,00*7E
$GPGSV,3,3,11,26,58,279,46,28,60,147,43,29,68,254,49,,,,*4C
$PGRME,66.1,M,,M,66.1,M*00
$GPGLL,6127.376,N,02350.936,E,125457,A*22
$PGRMZ,572,f,2*1A
$PGRMM,WGS 84*06
$GPBOD,285.4,T,279.4,M,T012,T013*45
$GPWPL,6116.083,N,02452.500,E,T020*22
$GPRMC,125458,A,6127.379,N,02350.933,E,022.8,338.8,110805,006.0,E*78
$GPRMB,A,1.21,R,T013,T012,6129.236,N,02346.327,E,002.9,310.1,020.0,V*2F
$GPGGA,125458,6127.381,N,02350.931,E,1,03,16.8,174.2,M,20.7,M,,*73
$GPGSA,A,2,,,,,,,,,26,28,29,,16.8,16.8,*18
$GPGSV,3,1,11,03,04,013,00,07,00,154,00,08,54,094,47,10,18,210,34*72
$GPGSV,3,2,11,15,13,334,37,18,17,328,42,19,22,037,40,21,06,300,00*70
$GPGSV,3,3,11,26,58,279,46,28,60,147,43,29,68,254,50,,,,*44
$PGRME,66.1,M,,M,66.1,M*00
$GPGLL,6127.384,N,02350.928,E,125459,A*2E
$PGRMZ,572,f,2*1A
$PGRMM,WGS 84*06
$GPBOD,285.4,T,279.4,M,T012,T013*45
$GPWPL,6016.083,S,02452.500,E,T019*34
$GPRMC,125459,A,6127.388,N,02350.925,E,023.1,339.4,110805,006.0,E*75
$GPRMB,A,1.20,R,T013,T012,6129.236,N,02346.327,E,002.9,310.0,020.1,V*2E
$GPGGA,125459,6127.389,N,02350.924,E,1,03,16.8,174.2,M,20.7,M,,*7E
$GPGSA,A,2,,,,,,,,,26,28,29,,16.8,16.8,*18
$GPGSV,3,1,11,03,04,013,00,07,00,154,00,08,54,094,47,10,18,210,34*72
$GPGSV,3,2,11,15,13,334,38,18,17,328,42,19,22,037,40,21,06,300,00*7F
$GPGSV,3,3,11,26,58,279,47,28,60,147,43,29,68,254,50,,,,*45
$PGRME,66.1,M,,M,66.1,M*00
$GPGLL,6127.394,N,02350.920,E,125500,A*2A
$PGRMZ,572,f,2*1A
$PGRMM,WGS 84*06
$GPBOD,285.4,T,279.4,M,T012,T013*45
$GPWPL,6016.083,N,02452.500,E,T018*28
$GPRMC,125500,A,6127.397,N,02350.918,E,023.2,339.8,110805,006.0,E*77
$GPRMB,A,1.19,R,T013,T012,6129.236,N,02346.327,E,002.9,309.9,020.2,V*26
$GPGGA,125500,6127.398,N,02350.917,E,1,03,16.8,174.2,M,20.7,M,,*73
$GPGSA,A,2,,,,,,,,,26,28,29,,16.8,16.8,*18
$GPGSV,3,1,11,03,04,013,00,07,00,154,00,08,54,094,47,10,18,210,33*75
$GPGSV,3,2,11,15,13,334,40,18,17,328,42,19,22,037,39,21,06,300,00*7E
$GPGSV,3,3,11,26,58,279,47,28,60,147,43,29,68,254,50,,,,*45
$PGRME,66.1,M,,M,66.1,M*00
$GPGLL,6127.402,N,02350.914,E,125500,A*25
$PGRMZ,572,f,2*1A
$PGRMM,WGS 84*06
$GPBOD,285.4,T,279.4,M,T012,T013*45
$GPWPL,6013.283,N,02456.650,E,T017*22
$GPRMC,125501,A,6127.406,N,02350.911,E,023.3,340.0,110805,006.0,E*77
$GPRMB,A,1.19,R,T013,T012,6129.236,N,02346.327,E,002.9,309.8,020.2,V*27
$GPGGA,125501,6127.407,N,02350.910,E,1,03,16.8,174.2,M,20.7,M,,*74
$GPGSA,A,2,,,,,,,,,26,28,29,,16.8,16.8,*18
$GPGSV,3,1,11,03,04,013,00,07,00,154,00,08,54,094,48,10,18,210,33*7A
$GPGSV,3,2,11,15,13,334,41,18,17,328,43,19,22,037,41,21,06,300,00*71
$GPGSV,3,3,11,26,58,279,47,28,60,147,42,29,68,254,50,,,,*44
$PGRME,65.7,M,,M,65.7,M*00
$GPGLL,6127.411,N,02350.906,E,125502,A*26
$PGRMZ,572,f,2*1A
$PGRMM,WGS 84*06
$GPBOD,285.4,T,279.4,M,T012,T013*45
$GPWPL,6123.283,N,02430.650,E,T016*21
$GPRMC,125503,A,6127.416,N,02350.903,E,023.5,340.6,110805,006.0,E*77
$GPRMB,A,1.18,R,T013,T012,6129.236,N,02346.327,E,002.9,309.7,020.2,V*29
$GPGGA,125503,6127.417,N,02350.902,E,1,03,16.7,174.2,M,20.7,M,,*7B
$GPGSA,A,2,,,,,,,,,26,28,29,,16.7,16.7,*18
$GPGSV,3,1,11,03,04,013,00,07,00,154,00,08,54,094,48,10,18,210,32*7B
$GPGSV,3,2,11,15,13,334,40,18,17,328,44,19,22,037,40,21,06,300,00*76
$GPGSV,3,3,11,26,58,279,47,28,60,147,42,29,68,254,50,,,,*44
$PGRME,65.7,M,,M,65.7,M*00
$GPGLL,6127.421,N,02350.899,E,125504,A*24
$PGRMZ,572,f,2*1A
$PGRMM,WGS 84*06
$GPBOD,285.4,T,279.4,M,T012,T013*45
$GPWPL,0000.000,N,00000.000,W,T015*39
$GPRMC,125504,A,6127.426,N,02350.896,E,023.6,341.0,110805,006.0,E*7A
$GPRMB,A,1.17,R,T013,T012,6129.236,N,02346.327,E,002.8,309.6,020.2,V*26
$GPGGA,125505,6127.427,N,02350.895,E,1,03,16.7,174.2,M,20.7,M,,*71
$GPGSA,A,2,,,,,,,,,26,28,29,,16.7,16.7,*18
$GPGSV,3,1,11,03,04,013,00,07,00,154,00,08,54,094,48,10,18,210,32*7B
$GPGSV,3,2,11,15,13,334,38,18,17,328,42,19,22,037,38,21,06,300,00*70
$GPGSV,3,3,11,26,58,279,47,28,60,147,41,29,68,254,50,,,,*47
$PGRME,65.7,M,,M,65.7,M*00
$GPGLL,6127.432,N,02350.892,E,125505,A*2C
$PGRMZ,572,f,2*1A
$PGRMM,WGS 84*06
$GPBOD,285.4,T,279.4,M,T012,T013*45
$GPWPL,0009.000,N,02430.650,E,T014*25
$GPRMC,125506,A,6127.436,N,02350.890,E,023.6,341.3,110805,006.0,E*7C
$GPRMB,A,1.16,R,T013,T012,6129.236,N,02346.327,E,002.8,309.5,020.0,V*26
$GPGGA,125506,6127.437,N,02350.889,E,1,03,16.7,174.2,M,20.7,M,,*7E
$GPGSA,A,2,,,,,,,,,26,28,29,,16.7,16.7,*18
$GPGSV,3,1,11,03,04,013,00,07,00,154,00,08,54,094,48,10,17,209,32*7C
$GPGSV,3,2,11,15,13,334,38,18,17,328,41,19,22,037,37,21,06,300,00*7C
$GPGSV,3,3,11,26,58,279,46,28,60,147,40,29,68,254,50,,,,*47
$PGRME,65.7,M,,M,65.7,M*00
$GPGLL,6127.441,N,02350.887,E,125507,A*2E
$PGRMZ,572,f,2*1A
$PGRMM,WGS 84*06
$GPBOD,285.4,T,279.4,M,T012,T013*45
$GPWPL,6123.285,N,02430.651,E,T013*23
$GPRMC,125507,A,6127.444,N,02350.884,E,023.6,341.3,110805,006.0,E*7D
$GPRMB,A,1.15,R,T013,T012,6129.236,N,02346.327,E,002.8,309.4,020.0,V*24
$GPGGA,125507,6127.445,N,02350.884,E,1,03,16.7,174.2,M,20.7,M,,*77
$GPGSA,A,2,,,,,,,,,26,28,29,,16.7,16.7,*18
$GPGSV,3,1,11,03,04,013,00,07,00,154,00,08,54,094,48,10,17,209,31*7F
$GPGSV,3,2,11,15,13,334,37,18,17,328,40,19,22,037,38,21,06,300,00*7D
$GPGSV,3,3,11,26,58,279,46,28,60,147,39,29,68,254,50,,,,*49
$PGRME,65.7,M,,M,65.7,M*00
$GPGLL,6127.449,N,02350.881,E,125508,A*2F
$PGRMZ,572,f,2*1A
$PGRMM,WGS 84*06
$GPBOD,285.4,T,279.4,M,T012,T013*45
$GPWPL,6129.236,N,02346.327,E,T012*22
$GPRMC,125508,A,6127.452,N,02350.879,E,023.6,341.3,110805,006.0,E*77
$GPRMB,A,1.14,R,T013,T012,6129.236,N,02346.327,E,002.8,309.3,020.0,V*22
$GPGGA,125509,6127.454,N,02350.878,E,1,03,16.7,174.2,M,20.7,M,,*7A
$GPGSA,A,2,,,,,,,,,26,28,29,,16.7,16.7,*18
$GPGSV,3,1,11,03,04,013,00,07,00,154,00,08,54,094,46,10,17,209,31*71
$GPGSV,3,2,11,15,13,334,36,18,17,328,39,19,22,037,38,21,06,300,00*72
$GPGSV,3,3,11,26,58,279,46,28,60,147,37,29,68,254,49,,,,*4F
$PGRME,65.7,M,,M,65.7,M*00
$GPGLL,6127.457,N,02350.875,E,125509,A*2A
$PGRMZ,572,f,2*1A
$PGRMM,WGS 84*06
$GPBOD,285.4,T,279.4,M,T012,T013*45
$GPWPL,6114.236,N,02346.327,E,T011*2F
$GPRMC,125510,A,6127.460,N,02350.873,E,023.6,341.3,110805,006.0,E*75
$GPRMB,A,1.14,R,T013,T012,6129.236,N,02346.327,E,002.8,309.2,020.0,V*23
$GPGGA,125510,6127.463,N,02350.873,E,1,03,16.7,174.2,M,20.7,M,,*7D
$GPGSA,A,2,,,,,,,,,26,28,29,,16.7,16.7,*18
$GPGSV,3,1,11,03,04,013,00,07,00,154,00,08,54,094,45,10,17,209,31*72
$GPGSV,3,2,11,15,13,334,35,18,17,328,39,19,22,037,39,21,06,300,00*70
$GPGSV,3,3,11,26,58,279,46,28,60,147,38,29,68,254,49,,,,*40
$PGRME,65.2,M,,M,65.2,M*00
$GPGLL,6127.466,N,02350.870,E,125510,A*25
$PGRMZ,572,f,2*1A
$PGRMM,WGS 84*06
$GPBOD,285.4,T,279.4,M,T012,T013*45
$GPWPL,6220.236,N,02346.327,E,T010*2A
$GPRMC,125511,A,6127.470,N,02350.868,E,023.4,341.4,110805,006.0,E*7A
$GPRMB,A,1.13,R,T013,T012,6129.236,N,02346.327,E,002.8,309.1,019.8,V*25
$GPGGA,125511,6127.471,N,02350.867,E,1,03,16.7,174.2,M,20.7,M,,*7A
$GPGSA,A,2,,,,,,,,,26,28,29,,16.7,16.7,*18
$GPGSV,3,1,11,03,04,013,00,07,00,154,00,08,54,094,44,10,17,209,31*73
$GPGSV,3,2,11,15,13,334,35,18,17,328,38,19,22,037,41,21,06,300,00*7E
$GPGSV,3,3,11,26,58,279,45,28,60,147,37,29,68,254,49,,,,*4C
$PGRME,65.2,M,,M,65.2,M*00
$GPGLL,6127.474,N,02350.865,E,125512,A*20
$PGRMZ,572,f,2*1A
$PGRMM,WGS 84*06
$GPBOD,285.4,T,279.4,M,T012,T013*45
$GPWPL,6120.236,N,02346.327,E,T009*21
$GPRMC,125512,A,6127.478,N,02350.862,E,023.4,341.4,110805,006.0,E*7B
$GPRMB,A,1.12,R,T013,T012,6129.236,N,02346.327,E,002.8,309.0,019.8,V*25
$GPGGA,125512,6127.479,N,02350.862,E,1,03,16.7,174.2,M,20.7,M,,*74
$GPGSA,A,2,,,,,,,,,26,28,29,,16.7,16.7,*18
$GPGSV,3,1,11,03,04,013,00,07,00,154,00,08,54,094,44,10,17,209,31*73
$GPGSV,3,2,11,15,13,334,34,18,17,328,37,19,22,037,39,21,06,300,00*7F
$GPGSV,3,3,11,26,58,279,46,28,60,147,35,29,68,254,49,,,,*4D
$PGRME,65.2,M,,M,65.2,M*00
$GPGLL,6127.482,N,02350.859,E,125513,A*27
$PGRMZ,572,f,2*1A
$PGRMM,WGS 84*06
$GPBOD,285.4,T,279.4,M,T012,T013*45
$GPWPL,6129.234,N,02346.317,E,T008*28
$GPRMC,125514,A,6127.486,N,02350.857,E,023.4,341.4,110805,006.0,E*7A
$GPRMB,A,1.12,R,T013,T012,6129.236,N,02346.327,E,002.8,308.9,019.7,V*22
$GPGGA,125514,6127.487,N,02350.856,E,1,03,16.7,174.2,M,20.7,M,,*74
$GPGSA,A,2,,,,,,,,,26,28,29,,16.7,16.7,*18
$GPGSV,3,1,11,03,04,013,00,07,00,154,00,08,54,094,43,10,17,209,31*74
$GPGSV,3,2,11,15,13,334,35,18,17,328,36,19,22,037,41,21,06,300,00*70
$GPGSV,3,3,11,26,58,279,46,28,60,147,35,29,68,254,49,,,,*4D
$PGRME,65.2,M,,M,65.2,M*00
$GPGLL,6127.490,N,02350.853,E,125514,A*29
$PGRMZ,572,f,2*1A
$PGRMM,WGS 84*06
$GPBOD,285.4,T,279.4,M,T012,T013*45
$GPWPL,6157.564,N,02406.158,E,T007*26
$GPRMC,125515,A,6127.494,N,02350.851,E,023.4,341.4,110805,006.0,E*7E
$GPRMB,A,1.11,R,T013,T012,6129.236,N,02346.327,E,002.8,308.8,019.7,V*20
$GPGGA,125515,6127.495,N,02350.850,E,1,03,16.7,174.2,M,20.7,M,,*70
$GPGSA,A,2,,,,,,,,,26,28,29,,16.7,16.7,*18
$GPGSV,3,1,11,03,04,013,00,07,00,154,00,08,54,094,44,10,17,209,31*73
$GPGSV,3,2,11,15,13,334,35,18,17,328,36,19,22,037,39,21,06,300,00*7F
$GPGSV,3,3,11,26,58,279,47,28,60,147,34,29,68,254,49,,,,*4D
$PGRME,65.2,M,,M,65.2,M*00
$GPGLL,6127.498,N,02350.848,E,125516,A*29
$PGRMZ,572,f,2*1A
$PGRMM,WGS 84*06
$GPBOD,285.4,T,279.4,M,T012,T013*45
$GPWPL,6145.919,N,02345.544,E,T006*2B
$GPRMC,125516,A,6127.501,N,02350.845,E,023.0,341.4,110805,006.0,E*71
$GPRMB,A,1.10,R,T013,T012,6129.236,N,02346.327,E,002.8,308.7,019.3,V*2A
$GPGGA,125516,6127.503,N,02350.844,E,1,03,16.6,174.2,M,20.7,M,,*79
$GPGSA,A,2,,,,,,,,,26,28,29,,16.6,16.6,*18
$GPGSV,3,1,11,03,04,013,00,07,00,154,00,08,54,094,43,10,17,209,31*74
$GPGSV,3,2,11,15,13,334,36,18,17,328,36,19,22,037,39,21,06,300,00*7C
$GPGSV,3,3,11,26,58,279,47,28,60,147,35,29,68,254,49,,,,*4C
$PGRME,65.0,M,,M,65.0,M*00
$GPGLL,6127.506,N,02350.842,E,125517,A*24
$PGRMZ,572,f,2*1A
$PGRMM,WGS 84*06
$GPBOD,285.4,T,279.4,M,T012,T013*45
$GPWPL,6130.198,N,02342.702,E,T005*2C
$GPRMC,125518,A,6127.509,N,02350.840,E,023.0,341.4,110805,006.0,E*72
$GPRMB,A,1.09,R,T013,T012,6129.236,N,02346.327,E,002.8,308.6,019.3,V*23
$GPGGA,125518,6127.510,N,02350.840,E,1,03,16.6,174.2,M,20.7,M,,*71
$GPGSA,A,2,,,,,,,,,26,28,29,,16.6,16.6,*18
$GPGSV,3,1,11,03,04,013,00,07,00,154,00,08,54,094,45,10,17,209,31*72
$GPGSV,3,2,11,15,13,334,36,18,17,328,35,19,22,037,38,21,06,299,00*7F
$GPGSV,3,3,11,26,58,279,47,28,60,147,34,29,68,254,49,,,,*4D
$PGRME,64.9,M,,M,64.9,M*00
$GPGLL,6127.514,N,02350.837,E,125518,A*2A
$PGRMZ,572,f,2*1A
$PGRMM,WGS 84*06
$GPBOD,285.4,T,279.4,M,T012,T013*45
$GPWPL,6216.183,N,02619.685,E,T004*25
$GPRMC,125519,A,6127.517,N,02350.835,E,022.4,341.3,110805,006.0,E*7C
$GPRMB,A,1.09,R,T013,T012,6129.236,N,02346.327,E,002.8,308.5,018.9,V*2B
$GPGGA,125519,6127.518,N,02350.834,E,1,03,16.6,174.2,M,20.7,M,,*7B
$GPGSA,A,2,,,,,,,,,26,28,29,,16.6,16.6,*18
$GPGSV,3,1,11,03,04,013,00,07,00,154,00,08,54,094,46,10,17,209,30*70
$GPGSV,3,2,11,15,13,334,37,18,17,328,36,19,22,037,38,21,06,299,00*7D
$GPGSV,3,3,11,26,58,279,47,28,60,147,34,29,68,254,49,,,,*4D
$PGRME,64.9,M,,M,64.9,M*00
$GPGLL,6127.522,N,02350.832,E,125520,A*21
$PGRMZ,572,f,2*1A
$PGRMM,WGS 84*06
$GPBOD,285.4,T,279.4,M,T012,T013*45
$GPWPL,6215.064,N,02603.837,E,T003*25
$GPRMC,125520,A,6127.524,N,02350.831,E,021.8,340.8,110805,006.0,E*77
$GPRMB,A,1.08,R,T013,T012,6129.236,N,02346.327,E,002.8,308.5,018.4,V*27
$GPGGA,125520,6127.525,N,02350.830,E,1,03,16.5,174.2,M,20.7,M,,*78
$GPGSA,A,2,,,,,,,,,26,28,29,,16.5,16.5,*18
$GPGSV,3,1,11,03,04,013,00,07,00,154,00,08,54,094,46,10,17,209,30*70
$GPGSV,3,2,11,15,13,334,36,18,17,328,35,19,22,037,38,21,06,299,00*7F
$GPGSV,3,3,11,26,58,279,47,28,60,147,39,29,68,254,48,,,,*41
$PGRME,64.8,M,,M,64.8,M*00
$GPGLL,6127.528,N,02350.828,E,125521,A*21
$PGRMZ,572,f,2*1A
$PGRMM,WGS 84*06
$GPBOD,285.4,T,279.4,M,T012,T013*45
$GPWPL,6151.098,N,02510.924,E,T002*26
$GPRMC,125521,A,6127.531,N,02350.826,E,021.3,340.8,110805,006.0,E*7F
$GPRMB,A,1.08,R,T013,T012,6129.236,N,02346.327,E,002.8,308.4,018.0,V*22
$GPGGA,125521,6127.532,N,02350.826,E,1,03,16.5,174.2,M,20.7,M,,*78
$GPGSA,A,2,,,,,,,,,26,28,29,,16.5,16.5,*18
$GPGSV,3,1,11,03,04,013,00,07,00,154,00,08,54,094,44,10,17,209,30*72
$GPGSV,3,2,11,15,13,334,35,18,17,328,35,19,22,037,37,21,06,299,00*73
$GPGSV,3,3,11,26,58,279,46,28,60,147,42,29,68,254,49,,,,*4D
$PGRME,64.8,M,,M,64.8,M*00
$GPGLL,6127.534,N,02350.824,E,125522,A*23
$PGRMZ,572,f,2*1A
$PGRMM,WGS 84*06
$GPBOD,285.4,T,279.4,M,T012,T013*45
$GPWPL,6129.271,N,02346.376,E,T001*27
$GPRMC,125522,A,6127.538,N,02350.822,E,020.8,340.5,110805,006.0,E*76
$GPRMB,A,1.07,R,T013,T012,6129.236,N,02346.327,E,002.7,308.3,017.6,V*2C
$GPGGA,125523,6127.539,N,02350.821,E,1,03,16.5,174.2,M,20.7,M,,*76
$GPGSA,A,2,,,,,,,,,26,28,29,,16.5,16.5,*18
$GPGSV,3,1,11,03,04,013,00,07,00,154,00,08,54,094,43,10,17,209,30*75
$GPGSV,3,2,11,15,13,334,35,18,17,328,35,19,22,037,36,21,06,299,00*72
$GPGSV,3,3,11,26,58,279,46,28,60,147,41,29,68,254,49,,,,*4E
$PGRME,64.8,M,,M,64.8,M*00
$GPGLL,6127.542,N,02350.818,E,125523,A*2C
$PGRMZ,572,f,2*1A
$PGRMM,WGS 84*06
$GPBOD,285.4,T,279.4,M,T012,T013*45
$GPRTE,4,1,c,0,T030,T029,T028,T027,T026,T025,T024,T023,T022*49
$GPRTE,4,2,c,0,T021,T020,T019,T018,T017,T016,T015,T014,T013*4B
$GPRTE,4,3,c,0,T012,T011,T010,T009,T008,T007,T006,T005,T004*4B
$GPRTE,4,4,c,0,T003,T002,T001*4F
$GPWPL,6016.083,N,02452.500,E,T030*22
$GPRMC,125524,A,6127.547,N,02350.815,E,020.8,340.5,110805,006.0,E*7C
$GPRMB,A,1.06,R,T013,T012,6129.236,N,02346.327,E,002.7,308.2,017.5,V*2F
$GPGGA,125525,6127.548,N,02350.814,E,1,03,16.5,174.2,M,20.7,M,,*70
$GPGSA,A,2,,,,,,,,,26,28,29,,16.5,16.5,*18
$GPGSV,3,1,11,03,04,013,00,07,00,154,00,08,54,094,41,10,17,209,30*77
$GPGSV,3,2,11,15,13,334,33,18,17,328,34,19,22,037,36,21,06,299,00*75
$GPGSV,3,3,11,26,58,279,46,28,60,147,40,29,68,254,48,,,,*4E
$PGRME,64.8,M,,M,64.8,M*00
$GPGLL,6127.551,N,02350.812,E,125525,A*22
$PGRMZ,572,f,2*1A
$PGRMM,WGS 84*06
$GPBOD,285.4,T,279.4,M,T012,T013*45
$GPWPL,6123.283,N,02430.650,E,T029*2D
$GPRMC,125526,A,6127.552,N,02350.811,E,020.4,340.6,110805,006.0,E*71
$GPRMB,A,1.06,R,T013,T012,6129.236,N,02346.327,E,002.7,308.1,017.5,V*2C
$GPGGA,125526,6127.553,N,02350.810,E,1,03,16.5,174.2,M,20.7,M,,*7D
$GPGSA,A,2,,,,,,,,,26,28,29,,16.5,16.5,*18
$GPGSV,3,1,11,03,04,013,00,07,00,154,00,08,54,094,40,10,17,209,30*76
$GPGSV,3,2,11,15,13,333,33,18,17,328,33,19,22,037,35,21,06,299,00*76
$GPGSV,3,3,11,26,58,279,47,28,60,147,40,29,68,254,48,,,,*4F
$PGRME,64.5,M,,M,64.5,M*00
$GPGLL,6127.556,N,02350.808,E,125526,A*2D
$PGRMZ,572,f,2*1A
$PGRMM,WGS 84*06
$GPBOD,285.4,T,279.4,M,T012,T013*45
$GPWPL,6023.283,N,02430.650,E,T028*2D
$GPRMC,125527,A,6127.559,N,02350.806,E,020.4,340.6,110805,006.0,E*7D
$GPRMB,A,1.05,R,T013,T012,6129.236,N,02346.327,E,002.7,308.1,017.2,V*28
$GPGGA,125527,6127.560,N,02350.805,E,1,03,16.5,174.2,M,20.7,M,,*78
$GPGSA,A,2,,,,,,,,,26,28,29,,16.5,16.5,*18
$GPGSV,3,1,11,03,04,013,00,07,00,154,00,08,54,094,39,10,17,209,30*78
$GPGSV,3,2,11,15,13,333,33,18,17,328,32,19,22,037,35,21,06,299,00*77
$GPGSV,3,3,11,26,58,279,47,28,60,147,39,29,68,254,47,,,,*4E
$PGRME,64.4,M,,M,64.4,M*00
$GPGLL,6127.562,N,02350.804,E,125528,A*28
$PGRMZ,572,f,2*1A
$PGRMM,WGS 84*06
$GPBOD,285.4,T,279.4,M,T012,T013*45
$GPWPL,6123.283,N,02430.650,E,T027*23
$GPRMC,125528,A,6127.564,N,02350.802,E,020.1,340.5,110805,006.0,E*7E
$GPRMB,A,1.05,R,T013,T012,6129.236,N,02346.327,E,002.7,308.0,017.2,V*29
$GPGGA,125528,6127.565,N,02350.801,E,1,03,16.4,174.2,M,20.7,M,,*77
$GPGSA,A,2,,,,,,,,,26,28,29,,16.4,16.4,*18
$GPGSV,3,1,11,03,04,013,00,07,00,154,00,08,54,094,37,10,17,209,30*76
$GPGSV,3,2,11,15,13,333,32,18,17,328,32,19,22,037,34,21,06,299,00*77
$GPGSV,3,3,11,26,58,279,47,28,60,147,41,29,68,254,47,,,,*41
$PGRME,64.4,M,,M,64.4,M*00
$GPGLL,6127.567,N,02350.800,E,125529,A*28
$PGRMZ,572,f,2*1A
$PGRMM,WGS 84*06
$GPBOD,285.4,T,279.4,M,T012,T013*45
$GPWPL,6017.083,N,02452.500,E,T026*24
$GPRMC,125530,A,6127.569,N,02350.798,E,019.9,340.6,110805,006.0,E*77
$GPRMB,A,1.04,R,T013,T012,6129.236,N,02346.327,E,002.7,307.9,016.8,V*25
$GPGGA,125530,6127.568,N,02350.798,E,1,03,16.4,174.2,M,20.7,M,,*7C
$GPGSA,A,2,,,,,,,,,26,28,29,,16.4,16.4,*18
$GPGSV,3,1,11,03,04,013,00,07,00,154,00,08,54,094,36,10,17,209,30*77
$GPGSV,3,2,11,15,13,333,34,18,17,328,36,19,22,037,34,21,06,299,00*75
$GPGSV,3,3,11,26,58,279,48,28,60,147,41,29,68,254,47,,,,*4E
$PGRME,64.4,M,,M,64.4,M*00
$GPGLL,6127.572,N,02350.796,E,125530,A*24
$PGRMZ,572,f,2*1A
$PGRMM,WGS 84*06
$GPBOD,285.4,T,279.4,M,T012,T013*45
$GPWPL,6017.083,S,02453.500,E,T025*3B
$GPRMC,125531,A,6127.574,N,02350.794,E,019.8,340.8,110805,006.0,E*79
$GPRMB,A,1.04,R,T013,T012,6129.236,N,02346.327,E,002.7,307.9,016.6,V*2B
$GPGGA,125531,6127.575,N,02350.793,E,1,03,16.4,174.2,M,20.7,M,,*7A
$GPGSA,A,2,,,,,,,,,26,28,29,,16.4,16.4,*18
$GPGSV,3,1,11,03,04,013,00,07,00,154,00,08,54,094,36,10,17,209,30*77
$GPGSV,3,2,11,15,13,333,36,18,17,328,38,19,22,037,37,21,06,299,00*7A
$GPGSV,3,3,11,26,58,279,48,28,60,147,41,29,68,254,47,,,,*4E
$PGRME,64.4,M,,M,64.4,M*00
$GPGLL,6127.577,N,02350.792,E,125532,A*27
$PGRMZ,572,f,2*1A
$PGRMM,WGS 84*06
$GPBOD,285.4,T,279.4,M,T012,T013*45
$GPWPL,6018.083,N,02453.500,E,T024*28
$GPRMC,125532,A,6127.577,N,02350.791,E,019.7,341.5,110805,006.0,E*7F
$GPRMB,A,1.03,R,T013,T012,6129.236,N,02346.327,E,002.7,307.8,016.4,V*2F
$GPGGA,125533,6127.578,N,02350.791,E,1,03,16.4,174.2,M,20.7,M,,*77
$GPGSA,A,2,,,,,,,,,26,28,29,,16.4,16.4,*18
$GPGSV,3,1,11,03,04,013,00,07,00,154,00,08,54,094,36,10,17,209,30*77
$GPGSV,3,2,11,15,13,333,38,18,17,328,40,19,22,037,38,21,06,299,00*74
$GPGSV,3,3,11,26,58,279,48,28,60,147,39,29,68,254,47,,,,*41
$PGRME,64.4,M,,M,64.4,M*00
$GPGLL,6127.580,N,02350.790,E,125533,A*2C
$PGRMZ,572,f,2*1A
$PGRMM,WGS 84*06
$GPBOD,285.4,T,279.4,M,T012,T013*45
$GPWPL,6017.083,N,02452.500,W,T023*33
$GPRMC,125534,A,6127.582,N,02350.788,E,019.6,341.8,110805,006.0,E*77
$GPRMB,A,1.03,R,T013,T012,6129.236,N,02346.327,E,002.7,307.8,016.3,V*28
$GPGGA,125534,6127.582,N,02350.789,E,1,03,16.4,174.2,M,20.7,M,,*7C
$GPGSA,A,2,,,,,,,,,26,28,29,,16.4,16.4,*18
$GPGSV,3,1,11,03,04,013,00,07,00,154,00,08,54,094,36,10,17,209,30*77
$GPGSV,3,2,11,15,13,333,39,18,17,328,40,19,22,037,39,21,06,299,00*74
$GPGSV,3,3,11,26,58,279,48,28,60,147,39,29,68,254,48,,,,*4E
$PGRME,64.4,M,,M,64.4,M*00
$GPGLL,6127.585,N,02350.787,E,125534,A*28
$PGRMZ,572,f,2*1A
$PGRMM,WGS 84*06
$GPBOD,285.4,T,279.4,M,T012,T013*45
$GPWPL,6017.083,N,02555.500,E,T022*26
$GPRMC,125535,A,6127.586,N,02350.787,E,019.5,342.2,110805,006.0,E*77
$GPRMB,A,1.03,R,T013,T012,6129.236,N,02346.327,E,002.7,307.7,016.1,V*25
$GPGGA,125535,6127.587,N,02350.786,E,1,03,16.4,174.2,M,20.7,M,,*77
$GPGSA,A,2,,,,,,,,,26,28,29,,16.4,16.4,*18
$GPGSV,3,1,11,03,04,013,00,07,00,154,00,08,54,094,37,10,17,209,30*76
$GPGSV,3,2,11,15,13,333,39,18,17,328,39,19,22,037,39,21,06,299,00*7A
$GPGSV,3,3,11,26,58,279,48,28,60,147,38,29,68,254,48,,,,*4F
$PGRME,64.4,M,,M,64.4,M*00
$GPGLL,6127.588,N,02350.786,E,125536,A*26
$PGRMZ,572,f,2*1A
$PGRMM,WGS 84*06
$GPBOD,285.4,T,279.4,M,T012,T013*45
$GPWPL,6017.083,N,02452.500,E,T021*23
$GPRMC,125536,A,6127.591,N,02350.784,E,019.6,342.5,110805,006.0,E*75
$GPRMB,A,1.02,R,T013,T012,6129.236,N,02346.327,E,002.7,307.6,016.1,V*25
