$GPRMC,142007,A,6127.444,N,02351.122,E,000.0,360.0,010403,006.0,E*71
$GPRMB,A,,,,,,,,,,,,V*71
$GPGGA,142007,6127.444,N,02351.122,E,1,06,2.2,156.1,M,20.7,M,,*40
$GPGSA,A,3,,07,09,11,,18,,23,28,,,,3.5,2.2,2.7*3D
$GPGSV,3,1,10,03,10,179,00,07,02,331,43,09,16,026,48,11,57,267,44*73
$GPGSV,3,2,10,14,51,105,31,18,07,066,38,20,09,240,00,23,03,064,40*72
$GPGSV,3,3,10,28,19,300,44,31,30,196,00,,,,,,,,*76
$PGRME,9.5,M,12.1,M,15.4,M*20
$GPGLL,6127.445,N,02351.122,E,142008,A*26
$PGRMZ,513,f,3*1C
$PGRMM,WGS 84*06
$GPBOD,,T,,M,,*47
$GPRTE,0,1,c,*36
$GPRMC,142009,A,6127.445,N,02351.122,E,000.0,360.0,010403,006.0,E*7E
$GPRMB,A,,,,,,,,,,,,V*71
$GPGGA,142009,6127.445,N,02351.122,E,1,06,2.2,156.5,M,20.7,M,,*4B
$GPGSA,A,3,,07,09,11,,18,,23,28,,,,3.5,2.2,2.7*3D
$GPGSV,3,1,10,03,10,179,00,07,02,331,43,09,16,026,48,11,57,267,44*73
$GPGSV,3,2,10,14,51,105,31,18,07,066,38,20,09,240,00,23,03,064,40*72
$GPGSV,3,3,10,28,19,300,44,31,30,195,00,,,,,,,,*75
$PGRME,9.5,M,12.1,M,15.4,M*20
$GPGLL,6127.445,N,02351.122,E,142010,A*2F
$PGRMZ,513,f,3*1C
$PGRMM,WGS 84*06
$GPBOD,,T,,M,,*47
$GPRTE,0,1,c,*36
$GPRMC,142011,A,6127.445,N,02351.122,E,000.0,360.0,010403,006.0,E*77
$GPRMB,A,,,,,,,,,,,,V*71
$GPGGA,142011,6127.445,N,02351.122,E,1,06,2.2,156.4,M,20.7,M,,*43
$GPGSA,A,3,,07,09,11,,18,,23,28,,,,3.5,2.2,2.7*3D
$GPGSV,3,1,10,03,10,179,00,07,02,331,41,09,16,026,30,11,57,267,42*78
$GPGSV,3,2,10,14,51,105,00,18,07,066,37,20,09,240,00,23,03,064,39*71
$GPGSV,3,3,10,28,19,300,42,31,30,195,00,,,,,,,,*73
$PGRME,9.5,M,12.1,M,15.4,M*20
$GPGLL,6127.445,N,02351.122,E,142012,A*2D
$PGRMZ,513,f,3*1C
$PGRMM,WGS 84*06
$GPBOD,,T,,M,,*47
$GPRTE,0,1,c,*36
$GPRMC,142013,A,6127.445,N,02351.122,E,000.0,360.0,010403,006.0,E*75
$GPRMB,A,,,,,,,,,,,,V*71
$GPGGA,142013,6127.445,N,02351.122,E,1,06,2.2,156.4,M,20.7,M,,*41
$GPGSA,A,3,,07,09,11,,18,,23,28,,,,3.5,2.2,2.7*3D
$GPGSV,3,1,10,03,10,179,00,07,02,331,40,09,16,026,30,11,57,267,41*7A
$GPGSV,3,2,10,14,51,105,00,18,07,066,36,20,09,240,00,23,03,064,37*7E
$GPGSV,3,3,10,28,19,300,41,31,30,195,00,,,,,,,,*70
$PGRME,9.5,M,12.1,M,15.4,M*20
$GPGLL,6127.444,N,02351.122,E,142014,A*2A
$PGRMZ,513,f,3*1C
$PGRMM,WGS 84*06
$GPBOD,,T,,M,,*47
$GPRTE,0,1,c,*36
$GPRMC,142015,A,6127.444,N,02351.122,E,000.0,360.0,010403,006.0,E*72
$GPRMB,A,,,,,,,,,,,,V*71
$GPGGA,142015,6127.444,N,02351.122,E,1,06,2.2,156.3,M,20.7,M,,*41
$GPGSA,A,3,,07,09,11,,18,,23,28,,,,3.5,2.2,2.7*3D
$GPGSV,3,1,10,03,10,179,00,07,02,331,38,09,16,026,30,11,57,267,39*7A
$GPGSV,3,2,10,14,51,105,00,18,07,066,35,20,09,240,00,23,03,064,36*7C
$GPGSV,3,3,10,28,19,300,39,31,30,195,00,,,,,,,,*7F
$PGRME,9.5,M,12.1,M,15.4,M*20
$GPGLL,6127.444,N,02351.122,E,142016,A*28
$PGRMZ,513,f,3*1C
$PGRMM,WGS 84*06
$GPBOD,,T,,M,,*47
$GPRTE,0,1,c,*36
$GPRMC,142017,A,6127.444,N,02351.122,E,000.0,360.0,010403,006.0,E*70
$GPRMB,A,,,,,,,,,,,,V*71
$GPGGA,142017,6127.444,N,02351.122,E,1,06,2.2,156.3,M,20.7,M,,*43
$GPGSA,A,3,,07,09,11,,18,,23,28,,,,3.5,2.2,2.7*3D
$GPGSV,3,1,10,03,10,179,00,07,02,331,00,09,16,026,00,11,57,267,00*78
$GPGSV,3,2,10,14,51,105,00,18,07,066,00,20,09,240,00,23,03,064,00*7F
$GPGSV,3,3,10,28,19,300,00,31,30,195,00,,,,,,,,*75
$PGRME,9.5,M,12.1,M,15.4,M*20
$GPGLL,6127.444,N,02351.122,E,142018,A*26
$PGRMZ,513,f,3*1C
$PGRMM,WGS 84*06
$GPBOD,,T,,M,,*47
$GPRTE,0,1,c,*36
$GPRMC,142019,A,6127.444,N,02351.122,E,000.0,360.0,010403,006.0,E*7E
$GPRMB,A,,,,,,,,,,,,V*71
$GPGGA,142019,6127.444,N,02351.122,E,1,06,2.2,156.3,M,20.7,M,,*4D
$GPGSA,A,3,,,,,,,,,,,,,3.5,2.2,2.7*31
$GPGSV,3,1,10,03,10,179,00,07,02,331,00,09,16,026,00,11,57,267,00*78
$GPGSV,3,2,10,14,51,105,00,18,07,066,00,20,09,240,00,23,03,064,00*7F
$GPGSV,3,3,10,28,19,300,00,31,30,195,00,,,,,,,,*75
$PGRME,9.5,M,12.1,M,15.4,M*20
$GPGLL,6127.444,N,02351.122,E,142020,A*2D
$PGRMZ,513,f,3*1C
$PGRMM,WGS 84*06
$GPBOD,,T,,M,,*47
$GPRTE,0,1,c,*36
$GPRMC,142021,A,6127.444,N,02351.122,E,000.0,360.0,010403,006.0,E*75
$GPRMB,A,,,,,,,,,,,,V*71
$GPGGA,142021,6127.444,N,02351.122,E,1,00,2.2,156.3,M,20.7,M,,*40
$GPGSA,A,3,,,,,,,,,,,,,3.5,2.2,2.7*31
$GPGSV,3,1,10,03,10,179,00,07,02,331,00,09,16,026,00,11,57,267,00*78
$GPGSV,3,2,10,14,51,105,00,18,07,066,00,20,09,240,00,23,03,064,00*7F
$GPGSV,3,3,10,28,19,300,00,31,30,195,00,,,,,,,,*75
$PGRME,9.5,M,12.1,M,15.4,M*20
$GPGLL,6127.444,N,02351.122,E,142022,A*2F
$PGRMZ,513,f,3*1C
$PGRMM,WGS 84*06
$GPBOD,,T,,M,,*47
$GPRTE,0,1,c,*36
$GPRMC,142023,A,6127.444,N,02351.122,E,000.0,360.0,010403,006.0,E*77
$GPRMB,A,,,,,,,,,,,,V*71
$GPGGA,142023,6127.444,N,02351.122,E,1,00,2.2,156.3,M,20.7,M,,*42
$GPGSA,A,3,,,,,,,,,,,,,3.5,2.2,2.7*31
$GPGSV,3,1,10,03,10,179,00,07,02,331,00,09,16,026,00,11,57,267,00*78
$GPGSV,3,2,10,14,51,105,00,18,07,066,00,20,09,240,00,23,03,064,00*7F
$GPGSV,3,3,10,28,19,300,00,31,30,195,00,,,,,,,,*75
$PGRME,9.5,M,12.1,M,15.4,M*20
$GPGLL,6127.444,N,02351.122,E,142024,A*29
$PGRMZ,513,f,3*1C
$PGRMM,WGS 84*06
$GPBOD,,T,,M,,*47
$GPRTE,0,1,c,*36
$GPRMC,142025,A,6127.444,N,02351.122,E,000.0,360.0,010403,006.0,E*71
$GPRMB,A,,,,,,,,,,,,V*71
$GPGGA,142025,6127.444,N,02351.122,E,1,00,2.2,156.3,M,20.7,M,,*44
$GPGSA,A,3,,,,,,,,,,,,,3.5,2.2,2.7*31
$GPGSV,3,1,10,03,09,179,00,07,02,331,00,09,16,026,00,11,57,267,00*70
$GPGSV,3,2,10,14,51,105,00,18,07,066,00,20,09,240,00,23,03,064,00*7F
$GPGSV,3,3,10,28,19,300,00,31,30,195,00,,,,,,,,*75
$PGRME,9.5,M,12.1,M,15.4,M*20
$GPGLL,6127.444,N,02351.122,E,142026,A*2B
$PGRMZ,513,f,3*1C
$PGRMM,WGS 84*06
$GPBOD,,T,,M,,*47
$GPRTE,0,1,c,*36
$GPRMC,142027,A,6127.444,N,02351.122,E,000.0,360.0,010403,006.0,E*73
$GPRMB,A,,,,,,,,,,,,V*71
$GPGGA,142027,6127.444,N,02351.122,E,1,00,2.2,156.3,M,20.7,M,,*46
$GPGSA,A,3,,,,,,,,,,,,,3.5,2.2,2.7*31
$GPGSV,3,1,10,03,09,179,00,07,02,331,00,09,16,026,00,11,57,267,00*70
$GPGSV,3,2,10,14,51,105,00,18,07,066,00,20,09,240,00,23,03,064,00*7F
$GPGSV,3,3,10,28,19,300,00,31,30,195,00,,,,,,,,*75
$PGRME,9.5,M,12.1,M,15.4,M*20
$GPGLL,6127.444,N,02351.123,E,142028,A*24
$PGRMZ,513,f,3*1C
$PGRMM,WGS 84*06
$GPBOD,,T,,M,,*47
$GPRTE,0,1,c,*36
$GPRMC,142029,A,6127.444,N,02351.123,E,000.0,360.0,010403,006.0,E*7C
$GPRMB,A,,,,,,,,,,,,V*71
$GPGGA,142029,6127.444,N,02351.123,E,1,00,2.2,156.3,M,20.7,M,,*49
$GPGSA,A,3,,,,,,,,,,,,,3.5,2.2,2.7*31
$GPGSV,3,1,10,03,09,179,00,07,02,331,00,09,16,026,00,11,57,267,00*70
$GPGSV,3,2,10,14,51,105,00,18,07,066,00,20,09,240,00,23,03,064,00*7F
$GPGSV,3,3,10,28,19,300,00,31,30,195,00,,,,,,,,*75
$PGRME,9.5,M,12.1,M,15.4,M*20
$GPGLL,6127.444,N,02351.123,E,142030,A*2D
$PGRMZ,513,f,3*1C
$PGRMM,WGS 84*06
$GPBOD,,T,,M,,*47
$GPRTE,0,1,c,*36
$GPRMC,142031,A,6127.444,N,02351.123,E,000.0,360.0,010403,006.0,E*75
$GPRMB,A,,,,,,,,,,,,V*71
$GPGGA,142031,6127.444,N,02351.123,E,1,00,2.2,156.3,M,20.7,M,,*40
$GPGSA,A,3,,,,,,,,,,,,,3.5,2.2,2.7*31
$GPGSV,3,1,10,03,09,179,00,07,02,331,00,09,16,026,00,11,57,267,00*70
$GPGSV,3,2,10,14,51,105,00,18,07,066,00,20,09,240,00,23,03,064,00*7F
$GPGSV,3,3,10,28,19,300,00,31,30,195,00,,,,,,,,*75
$PGRME,9.5,M,12.1,M,15.4,M*20
$GPGLL,6127.444,N,02351.123,E,142032,A*2F
$PGRMZ,513,f,3*1C
$PGRMM,WGS 84*06
$GPBOD,,T,,M,,*47
$GPRTE,0,1,c,*36
$GPRMC,142033,A,6127.444,N,02351.123,E,000.0,360.0,010403,006.0,E*77
$GPRMB,A,,,,,,,,,,,,V*71
$GPGGA,142033,6127.444,N,02351.123,E,1,00,2.2,156.3,M,20.7,M,,*42
$GPGSA,A,3,,,,,,,,,,,,,3.5,2.2,2.7*31
$GPGSV,3,1,10,03,09,179,00,07,02,331,00,09,16,026,00,11,57,267,00*70
$GPGSV,3,2,10,14,51,105,00,18,07,066,00,20,09,240,00,23,03,064,00*7F
$GPGSV,3,3,10,28,19,300,00,31,30,195,00,,,,,,,,*75
$PGRME,9.5,M,12.1,M,15.4,M*20
$GPGLL,6127.444,N,02351.123,E,142034,A*29
$PGRMZ,513,f,3*1C
$PGRMM,WGS 84*06
$GPBOD,,T,,M,,*47
$GPRTE,0,1,c,*36
$GPRMC,142035,A,6127.444,N,02351.123,E,000.0,360.0,010403,006.0,E*71
$GPRMB,A,,,,,,,,,,,,V*71
$GPGGA,142035,6127.444,N,02351.123,E,1,00,2.2,156.3,M,20.7,M,,*44
$GPGSA,A,3,,,,,,,,,,,,,3.5,2.2,2.7*31
$GPGSV,3,1,10,03,09,179,00,07,02,331,00,09,16,026,00,11,57,267,00*70
$GPGSV,3,2,10,14,51,105,00,18,07,066,00,20,09,240,00,23,03,064,00*7F
$GPGSV,3,3,10,28,19,300,00,31,30,195,00,,,,,,,,*75
$PGRME,9.5,M,12.1,M,15.4,M*20
$GPGLL,6127.444,N,02351.123,E,142036,A*2B
$PGRMZ,513,f,3*1C
$PGRMM,WGS 84*06
$GPBOD,,T,,M,,*47
$GPRTE,0,1,c,*36
$GPRMC,142037,A,6127.444,N,02351.123,E,000.0,360.0,010403,006.0,E*73
$GPRMB,A,,,,,,,,,,,,V*71
$GPGGA,142037,6127.444,N,02351.123,E,1,00,2.2,156.3,M,20.7,M,,*46
$GPGSA,A,3,,,,,,,,,,,,,3.5,2.2,2.7*31
$GPGSV,3,1,10,03,09,179,00,07,02,331,00,09,16,026,00,11,57,267,00*70
$GPGSV,3,2,10,14,51,105,00,18,07,066,00,20,09,240,00,23,03,064,00*7F
$GPGSV,3,3,10,28,19,300,00,31,30,195,00,,,,,,,,*75
$PGRME,9.5,M,12.1,M,15.4,M*20
$GPGLL,6127.444,N,02351.123,E,142038,A*25
$PGRMZ,513,f,3*1C
$PGRMM,WGS 84*06
$GPBOD,,T,,M,,*47
$GPRTE,0,1,c,*36
$GPRMC,142039,V,,,,,,,010403,,*3A
$GPRMB,V,,,,,,,,,,,,V*66
$GPGGA,142039,,,,,0,00,,,M,,M,,*6B
$GPGSA,A,1,,,,,,,,,,,,,,,*1E
$GPGSV,3,1,10,03,09,179,00,07,02,331,00,09,16,026,00,11,57,267,00*70
$GPGSV,3,2,10,14,51,105,00,18,07,066,00,20,09,240,00,23,03,064,00*7F
$GPGSV,3,3,10,28,19,300,00,31,30,195,00,,,,,,,,*75
$PGRME,,M,,M,,M*00
$GPGLL,,,,,142040,*53
$PGRMZ,,,*7E
$PGRMM,WGS 84*06
$GPBOD,,T,,M,,*47
$GPRTE,0,1,c,*36
$GPRMC,142041,V,,,,,,,010403,,*35
$GPRMB,V,,,,,,,,,,,,V*66
$GPGGA,142041,,,,,0,00,,,M,,M,,*64
$GPGSA,A,1,,,,,,,,,,,,,,,*1E
$GPGSV,3,1,10,03,09,179,00,07,03,331,00,09,16,026,00,11,57,267,00*71
$GPGSV,3,2,10,14,51,105,00,18,07,066,00,20,09,240,00,23,03,064,00*7F
$GPGSV,3,3,10,28,19,300,00,31,30,195,00,,,,,,,,*75
$PGRME,,M,,M,,M*00
$GPGLL,,,,,142042,*51
$PGRMZ,,,*7E
$PGRMM,WGS 84*06
$GPBOD,,T,,M,,*47
$GPRTE,0,1,c,*36
$GPRMC,142043,V,,,,,,,010403,,*37
$GPRMB,V,,,,,,,,,,,,V*66
$GPGGA,142043,,,,,0,00,,,M,,M,,*66
$GPGSA,A,1,,,,,,,,,,,,,,,*1E
$GPGSV,3,1,10,03,09,179,00,07,03,331,00,09,16,026,00,11,57,267,00*71
$GPGSV,3,2,10,14,51,105,00,18,07,066,00,20,09,240,00,23,03,064,00*7F
$GPGSV,3,3,10,28,19,300,00,31,30,195,00,,,,,,,,*75
$PGRME,,M,,M,,M*00
$GPGLL,,,,,142044,*57
$PGRMZ,,,*7E
$PGRMM,WGS 84*06
$GPBOD,,T,,M,,*47
$GPRTE,0,1,c,*36
$GPRMC,142045,V,,,,,,,010403,,*31
$GPRMB,V,,,,,,,,,,,,V*66
$GPGGA,142045,,,,,0,00,,,M,,M,,*60
$GPGSA,A,1,,,,,,,,,,,,,,,*1E
$GPGSV,3,1,10,03,09,179,00,07,03,331,00,09,16,026,00,11,57,267,00*71
$GPGSV,3,2,10,14,51,105,00,18,07,066,00,20,09,240,00,23,03,064,00*7F
$GPGSV,3,3,10,28,19,300,00,31,30,195,00,,,,,,,,*75
$PGRME,,M,,M,,M*00
$GPGLL,,,,,142046,*55
$PGRMZ,,,*7E
$PGRMM,WGS 84*06
$GPBOD,,T,,M,,*47
$GPRTE,0,1,c,*36
$GPRMC,142047,V,,,,,,,010403,,*33
$GPRMB,V,,,,,,,,,,,,V*66
$GPGGA,142047,,,,,0,00,,,M,,M,,*62
$GPGSA,A,1,,,,,,,,,,,,,,,*1E
$GPGSV,3,1,10,03,09,179,00,07,03,331,00,09,16,026,00,11,57,267,00*71
$GPGSV,3,2,10,14,51,105,00,18,07,066,00,20,09,240,00,23,03,064,00*7F
$GPGSV,3,3,10,28,19,300,00,31,30,195,00,,,,,,,,*75
$PGRME,,M,,M,,M*00
$GPGLL,,,,,142048,*5B
$PGRMZ,,,*7E
$PGRMM,WGS 84*06
$GPBOD,,T,,M,,*47
$GPRTE,0,1,c,*36
$GPRMC,142049,V,,,,,,,010403,,*3D
$GPRMB,V,,,,,,,,,,,,V*66
$GPGGA,142049,,,,,0,00,,,M,,M,,*6C
$GPGSA,A,1,,,,,,,,,,,,,,,*1E
$GPGSV,3,1,10,03,09,179,00,07,03,331,00,09,16,025,00,11,57,267,00*72
$GPGSV,3,2,10,14,51,105,00,18,07,066,00,20,09,240,00,23,03,064,00*7F
$GPGSV,3,3,10,28,19,300,00,31,30,195,00,,,,,,,,*75
$PGRME,,M,,M,,M*00
$GPGLL,,,,,142050,*52
$PGRMZ,,,*7E
$PGRMM,WGS 84*06
$GPBOD,,T,,M,,*47
$GPRTE,0,1,c,*36
$GPRMC,142051,V,,,,,,,010403,,*34
$GPRMB,V,,,,,,,,,,,,V*66
$GPGGA,142051,,,,,0,00,,,M,,M,,*65
$GPGSA,A,1,,,,,,,,,,,,,,,*1E
$GPGSV,3,1,10,03,09,179,00,07,03,331,00,09,16,025,00,11,57,267,00*72
$GPGSV,3,2,10,14,51,105,00,18,07,066,00,20,09,240,00,23,03,064,00*7F
$GPGSV,3,3,10,28,19,300,00,31,30,195,00,,,,,,,,*75
$PGRME,,M,,M,,M*00
$GPGLL,,,,,142052,*50
$PGRMZ,,,*7E
$PGRMM,WGS 84*06
$GPBOD,,T,,M,,*47
$GPRTE,0,1,c,*36
$GPRMC,142053,V,,,,,,,010403,,*36
$GPRMB,V,,,,,,,,,,,,V*66
$GPGGA,142053,,,,,0,00,,,M,,M,,*67
$GPGSA,A,1,,,,,,,,,,,,,,,*1E
$GPGSV,3,1,10,03,09,179,00,07,03,331,00,09,16,025,00,11,57,267,00*72
$GPGSV,3,2,10,14,51,105,00,18,07,066,00,20,09,240,00,23,03,064,00*7F
$GPGSV,3,3,10,28,19,300,00,31,30,195,00,,,,,,,,*75
$PGRME,,M,,M,,M*00
$GPGLL,,,,,142054,*56
$PGRMZ,,,*7E
$PGRMM,WGS 84*06
$GPBOD,,T,,M,,*47
$GPRTE,0,1,c,*36
$GPRMC,142055,V,,,,,,,010403,,*30
$GPRMB,V,,,,,,,,,,,,V*66
$GPGGA,142055,,,,,0,00,,,M,,M,,*61
$GPGSA,A,1,,,,,,,,,,,,,,,*1E
$GPGSV,3,1,10,03,09,179,00,07,03,331,00,09,16,025,00,11,57,267,00*72
$GPGSV,3,2,10,14,51,105,00,18,07,066,00,20,09,240,00,23,03,064,00*7F
$GPGSV,3,3,10,28,19,300,00,31,30,195,00,,,,,,,,*75
$PGRME,,M,,M,,M*00
$GPGLL,,,,,142056,*54
$PGRMZ,,,*7E
$PGRMM,WGS 84*06
$GPBOD,,T,,M,,*47
$GPRTE,0,1,c,*36
$GPRMC,142057,V,,,,,,,010403,,*32
$GPRMB,V,,,,,,,,,,,,V*66
$GPGGA,142057,,,,,0,00,,,M,,M,,*63
$GPGSA,A,1,,,,,,,,,,,,,,,*1E
$GPGSV,3,1,10,03,09,179,00,07,03,331,00,09,16,025,00,11,58,266,00*7C
$GPGSV,3,2,10,14,51,105,00,18,07,066,00,20,09,240,00,23,03,064,00*7F
$GPGSV,3,3,10,28,19,300,00,31,30,195,00,,,,,,,,*75
$PGRME,,M,,M,,M*00
$GPGLL,,,,,142058,*5A
$PGRMZ,,,*7E
$PGRMM,WGS 84*06
$GPBOD,,T,,M,,*47
$GPRTE,0,1,c,*36
$GPRMC,142059,V,,,,,,,010403,,*3C
$GPRMB,V,,,,,,,,,,,,V*66
$GPGGA,142059,,,,,0,00,,,M,,M,,*6D
$GPGSA,A,1,,,,,,,,,,,,,,,*1E
$GPGSV,3,1,10,03,09,179,00,07,03,331,00,09,16,025,00,11,58,266,00*7C
$GPGSV,3,2,10,14,51,105,00,18,07,066,00,20,09,240,00,23,03,064,00*7F
$GPGSV,3,3,10,28,19,300,00,31,30,195,00,,,,,,,,*75
$PGRME,,M,,M,,M*00
$GPGLL,,,,,142100,*56
$PGRMZ,,,*7E
$PGRMM,WGS 84*06
$GPBOD,,T,,M,,*47
$GPRTE,0,1,c,*36
$GPRMC,142101,V,,,,,,,010403,,*30
$GPRMB,V,,,,,,,,,,,,V*66
$GPGGA,142101,,,,,0,00,,,M,,M,,*61
$GPGSA,A,1,,,,,,,,,,,,,,,*1E
$GPGSV,3,1,10,03,09,179,00,07,03,331,00,09,16,025,00,11,58,266,00*7C
$GPGSV,3,2,10,14,51,105,00,18,07,066,00,20,09,240,00,23,03,064,00*7F
$GPGSV,3,3,10,28,19,300,00,31,30,195,00,,,,,,,,*75
$PGRME,,M,,M,,M*00
$GPGLL,,,,,142102,*54
$PGRMZ,,,*7E
$PGRMM,WGS 84*06
$GPBOD,,T,,M,,*47
$GPRTE,0,1,c,*36
$GPRMC,142103,V,,,,,,,010403,,*32
$GPRMB,V,,,,,,,,,,,,V*66
$GPGGA,142103,,,,,0,00,,,M,,M,,*63
$GPGSA,A,1,,,,,,,,,,,,,,,*1E
$GPGSV,3,1,10,03,09,179,00,07,03,331,00,09,16,025,00,11,58,266,00*7C
$GPGSV,3,2,10,14,51,105,00,18,07,066,00,20,09,240,00,23,03,064,00*7F
$GPGSV,3,3,10,28,19,300,00,31,30,195,00,,,,,,,,*75
$PGRME,,M,,M,,M*00
$GPGLL,,,,,142104,*52
$PGRMZ,,,*7E
$PGRMM,WGS 84*06
$GPBOD,,T,,M,,*47
$GPRTE,0,1,c,*36
$GPRMC,142105,V,,,,,,,010403,,*34
$GPRMB,V,,,,,,,,,,,,V*66
$GPGGA,142105,,,,,0,00,,,M,,M,,*65
$GPGSA,A,1,,,,,,,,,,,,,,,*1E
$GPGSV,3,1,10,03,09,179,00,07,03,331,00,09,16,025,00,11,58,266,00*7C
$GPGSV,3,2,10,14,51,105,00,18,07,066,00,20,09,240,00,23,03,064,00*7F
$GPGSV,3,3,10,28,19,300,00,31,30,195,00,,,,,,,,*75
$PGRME,,M,,M,,M*00
$GPGLL,,,,,142106,*50
$PGRMZ,,,*7E
$PGRMM,WGS 84*06
$GPBOD,,T,,M,,*47
$GPRTE,0,1,c,*36
$GPRMC,142107,V,,,,,,,010403,,*36
$GPRMB,V,,,,,,,,,,,,V*66
$GPGGA,142107,,,,,0,00,,,M,,M,,*67
$GPGSA,A,1,,,,,,,,,,,,,,,*1E
$GPGSV,3,1,10,03,09,179,00,07,03,331,00,09,16,025,00,11,58,266,00*7C
$GPGSV,3,2,10,14,51,105,00,18,07,066,00,20,09,240,00,23,03,064,00*7F
$GPGSV,3,3,10,28,19,300,00,31,30,195,00,,,,,,,,*75
$PGRME,,M,,M,,M*00
$GPGLL,,,,,142108,*5E
$PGRMZ,513,f,2*1D
$PGRMM,WGS 84*06
$GPBOD,,T,,M,,*47
$GPRTE,0,1,c,*36
$GPRMC,142109,A,6127.439,N,02351.128,E,000.0,360.0,010403,006.0,E*7E
$GPRMB,A,,,,,,,,,,,,V*71
$GPGGA,142109,6127.439,N,02351.128,E,1,00,2.6,144.5,M,20.7,M,,*4A
$GPGSA,A,3,,07,09,11,,,,23,28,,,,2.6,2.6,1.0*36
$GPGSV,3,1,10,03,09,179,00,07,03,331,41,09,16,025,47,11,58,266,44*7A
$GPGSV,3,2,10,14,51,103,00,18,07,066,00,20,09,240,00,23,03,064,40*7D
$GPGSV,3,3,10,28,19,300,47,31,30,195,00,,,,,,,,*76
$PGRME,10.6,M,15.5,M,11.3,M*1B
$GPGLL,6127.438,N,02351.129,E,142110,A*2F
$PGRMZ,468,f,3*11
$PGRMM,WGS 84*06
$GPBOD,,T,,M,,*47
$GPRTE,0,1,c,*36
$GPRMC,142111,A,6127.438,N,02351.130,E,000.0,360.0,010403,006.0,E*7F
$GPRMB,A,,,,,,,,,,,,V*71
$GPGGA,142111,6127.438,N,02351.130,E,1,05,2.3,141.2,M,20.7,M,,*49
$GPGSA,A,3,,07,09,11,,,,23,28,,,,2.7,2.3,1.2*30
$GPGSV,3,1,10,03,09,179,00,07,03,331,41,09,16,025,47,11,58,266,44*7A
$GPGSV,3,2,10,14,51,103,00,18,07,066,00,20,09,240,00,23,03,064,41*7C
$GPGSV,3,3,10,28,19,300,47,31,30,195,00,,,,,,,,*76
$PGRME,11.2,M,17.1,M,13.8,M*11
$GPGLL,6127.439,N,02351.129,E,142112,A*2C
$PGRMZ,458,f,3*12
$PGRMM,WGS 84*06
$GPBOD,,T,,M,,*47
$GPRTE,0,1,c,*36
$GPRMC,142113,A,6127.443,N,02351.127,E,000.0,360.0,010403,006.0,E*77
$GPRMB,A,,,,,,,,,,,,V*71
$GPGGA,142113,6127.443,N,02351.127,E,1,05,2.3,139.9,M,20.7,M,,*45
$GPGSA,A,3,,07,09,11,,18,,23,28,,,,3.0,2.3,1.5*38
$GPGSV,3,1,10,03,09,179,00,07,03,331,41,09,16,025,47,11,58,266,44*7A
$GPGSV,3,2,10,14,51,103,00,18,07,066,40,20,09,240,00,23,03,064,40*79
$GPGSV,3,3,10,28,19,300,47,31,30,195,00,,,,,,,,*76
$PGRME,9.3,M,11.7,M,13.9,M*28
$GPGLL,6127.446,N,02351.125,E,142114,A*2E
$PGRMZ,467,f,3*1E
$PGRMM,WGS 84*06
$GPBOD,,T,,M,,*47
$GPRTE,0,1,c,*36
$GPRMC,142115,A,6127.447,N,02351.124,E,000.0,360.0,010403,006.0,E*76
$GPRMB,A,,,,,,,,,,,,V*71
$GPGGA,142115,6127.447,N,02351.124,E,1,06,2.2,144.9,M,20.7,M,,*4C
$GPGSA,A,3,,07,09,11,,18,,23,28,,,,3.2,2.2,1.9*37
$GPGSV,3,1,10,03,09,179,00,07,03,331,41,09,16,025,47,11,58,266,43*7D
$GPGSV,3,2,10,14,51,103,00,18,07,066,41,20,09,240,00,23,03,064,40*78
$GPGSV,3,3,10,28,19,300,47,31,30,195,00,,,,,,,,*76
$PGRME,9.5,M,13.7,M,15.9,M*2A
$GPGLL,6127.448,N,02351.123,E,142116,A*24
$PGRMZ,481,f,3*16
$PGRMM,WGS 84*06
$GPBOD,,T,,M,,*47
$GPRTE,0,1,c,*36
$GPRMC,142117,A,6127.448,N,02351.123,E,000.0,360.0,010403,006.0,E*7C
$GPRMB,A,,,,,,,,,,,,V*71
$GPGGA,142117,6127.448,N,02351.123,E,1,06,2.2,152.8,M,20.7,M,,*40
$GPGSA,A,3,,07,09,11,,18,,23,28,,,,3.2,2.2,1.9*37
$GPGSV,3,1,10,03,09,179,00,07,03,331,42,09,16,025,47,11,58,266,43*7E
$GPGSV,3,2,10,14,51,103,00,18,07,066,41,20,09,240,00,23,03,064,40*78
$GPGSV,3,3,10,28,19,300,46,31,30,195,00,,,,,,,,*77
$PGRME,9.3,M,11.7,M,14.9,M*2F
$GPGLL,6127.448,N,02351.123,E,142118,A*2A
$PGRMZ,514,f,3*1B
$PGRMM,WGS 84*06
$GPBOD,,T,,M,,*47
$GPRTE,0,1,c,*36
$GPRMC,142119,A,6127.447,N,02351.123,E,000.0,360.0,010403,006.0,E*7D
$GPRMB,A,,,,,,,,,,,,V*71
$GPGGA,142119,6127.447,N,02351.123,E,1,06,2.1,158.9,M,20.7,M,,*49
$GPGSA,A,3,,07,09,11,,18,,23,28,,,,3.2,2.1,2.0*3E
$GPGSV,3,1,10,03,09,179,00,07,03,331,42,09,16,025,47,11,58,266,43*7E
$GPGSV,3,2,10,14,51,103,00,18,07,066,41,20,09,240,00,23,03,064,40*78
$GPGSV,3,3,10,28,19,300,46,31,30,195,00,,,,,,,,*77
$PGRME,9.3,M,11.7,M,14.9,M*2F
$GPGLL,6127.447,N,02351.123,E,142120,A*2E
$PGRMZ,528,f,3*14
$PGRMM,WGS 84*06
$GPBOD,,T,,M,,*47
$GPRTE,0,1,c,*36
$GPRMC,142121,A,6127.447,N,02351.123,E,000.0,360.0,010403,006.0,E*76
$GPRMB,A,,,,,,,,,,,,V*71
$GPGGA,142121,6127.447,N,02351.123,E,1,06,2.1,162.5,M,20.7,M,,*47
$GPGSA,A,3,,07,09,11,,18,,23,28,,,,3.2,2.1,2.0*3E
$GPGSV,3,1,10,03,09,179,00,07,03,331,42,09,16,025,47,11,58,266,43*7E
$GPGSV,3,2,10,14,51,103,00,18,07,066,41,20,09,240,00,23,03,064,40*78
$GPGSV,3,3,10,28,19,300,46,31,30,195,00,,,,,,,,*77
$PGRME,9.3,M,11.7,M,14.9,M*2F
$GPGLL,6127.447,N,02351.123,E,142122,A*2C
$PGRMZ,537,f,3*1A
$PGRMM,WGS 84*06
$GPBOD,,T,,M,,*47
$GPRTE,0,1,c,*36
$GPRMC,142123,A,6127.446,N,02351.123,E,000.0,360.0,010403,006.0,E*75
$GPRMB,A,,,,,,,,,,,,V*71
$GPGGA,142123,6127.446,N,02351.123,E,1,06,2.1,164.5,M,20.7,M,,*42
$GPGSA,A,3,,07,09,11,,18,,23,28,,,,3.2,2.1,2.0*3E
$GPGSV,3,1,10,03,09,179,00,07,03,331,42,09,16,025,48,11,58,266,43*71
$GPGSV,3,2,10,14,51,103,00,18,07,066,41,20,09,240,00,23,03,064,40*78
$GPGSV,3,3,10,28,19,300,46,31,30,195,00,,,,,,,,*77
$PGRME,9.3,M,11.7,M,14.9,M*2F
$GPGLL,6127.446,N,02351.123,E,142124,A*2B
$PGRMZ,542,f,3*18
$PGRMM,WGS 84*06
$GPBOD,,T,,M,,*47
$GPRTE,0,1,c,*36
$GPRMC,