$GPRMC,093333,A,6126.825,N,02351.866,E,000.0,360.0,140501,006.0,E*7C
$GPRMB,A,,,,,,,,,,,,V*71
$GPGLL,6126.825,N,02351.866,E,093333,A*22
$PGRMZ,562,f,3*1A
$PGRMM,WGS 84*06
$GPBOD,,T,,M,,*47
$GPRTE,1,1,c,0*07
$GPRMC,093525,V,,,,,,,140501,,*38
$GPRMB,V,,,,,,,,,,,,V*66
$GPGGA,093525,,,,,0,10,,,M,,M,,*6F
$GPGSA,A,1,,,,,,,,,,,,,,,*1E
$GPGSV,3,1,11,03,52,276,00,08,11,354,00,15,70,098,00,17,59,083,00*75
$GPGSV,3,2,11,21,15,182,00,22,35,211,00,23,48,137,00,26,20,060,00*78
$GPGSV,3,3,11,27,15,330,00,28,34,304,00,31,05,294,00,,,,*4A
$PGRME,,M,,M,,M*00
$GPGLL,,,,,093526,*5B
$PGRMZ,,,*7E
$PGRMM,WGS 84*06
$GPBOD,,T,,M,,*47
$GPRTE,1,1,c,0*07
$GPRMC,093527,V,,,,,,,140501,,*3A
$GPRMB,V,,,,,,,,,,,,V*66
$GPGGA,093527,,,,,0,00,,,M,,M,,*6C
$GPGSA,A,1,,,,,,,,,,,,,,,*1E
$GPGSV,3,1,11,03,52,276,00,08,11,354,00,15,70,098,00,17,59,083,46*77
$GPGSV,3,2,11,21,15,182,00,22,35,211,00,23,48,137,00,26,20,060,00*78
$GPGSV,3,3,11,27,15,330,00,28,34,304,00,31,05,294,00,,,,*4A
$PGRME,,M,,M,,M*00
$GPGLL,,,,,093528,*55
$PGRMZ,,,*7E
$PGRMM,WGS 84*06
$GPBOD,,T,,M,,*47
$GPRTE,1,1,c,0*07
$GPRMC,093529,V,,,,,,,140501,,*34
$GPRMB,V,,,,,,,,,,,,V*66
$GPGGA,093529,,,,,0,00,,,M,,M,,*62
$GPGSA,A,1,,,,,,,,,,,,,,,*1E
$GPGSV,3,1,11,03,52,276,46,08,11,354,00,15,70,098,47,17,59,083,46*76
$GPGSV,3,2,11,21,15,182,00,22,35,211,00,23,48,137,46,26,20,060,00*7A
$GPGSV,3,3,11,27,15,330,00,28,34,304,00,31,05,294,00,,,,*4A
$PGRME,,M,,M,,M*00
$GPGLL,,,,,093530,*5C
$PGRMZ,,,*7E
$PGRMM,WGS 84*06
$GPBOD,,T,,M,,*47
$GPRTE,1,1,c,0*07
$GPRMC,093531,V,,,,,,,140501,,*3D
$GPRMB,V,,,,,,,,,,,,V*66
$GPGGA,093531,,,,,0,00,,,M,,M,,*6B
$GPGSA,A,1,,,,,,,,,,,,,,,*1E
$GPGSV,3,1,11,03,52,276,46,08,11,354,00,15,70,098,46,17,59,083,47*76
$GPGSV,3,2,11,21,15,182,00,22,35,211,43,23,48,137,46,26,20,060,45*7C
$GPGSV,3,3,11,27,15,330,00,28,34,304,00,31,05,294,00,,,,*4A
$PGRME,,M,,M,,M*00
$GPGLL,,,,,093532,*5E
$PGRMZ,,,*7E
$PGRMM,WGS 84*06
$GPBOD,,T,,M,,*47
$GPRTE,1,1,c,0*07
$GPRMC,093533,V,,,,,,,140501,,*3F
$GPRMB,V,,,,,,,,,,,,V*66
$GPGGA,093533,,,,,0,00,,,M,,M,,*69
$GPGSA,A,1,,,,,,,,,,,,,,,*1E
$GPGSV,3,1,11,03,52,276,47,08,11,354,00,15,70,098,47,17,59,083,47*76
$GPGSV,3,2,11,21,15,182,00,22,35,211,44,23,48,137,46,26,20,060,45*7B
$GPGSV,3,3,11,27,15,330,00,28,34,304,00,31,05,294,00,,,,*4A
$PGRME,,M,,M,,M*00
$GPGLL,,,,,093534,*58
$PGRMZ,,,*7E
$PGRMM,WGS 84*06
$GPBOD,,T,,M,,*47
$GPRTE,1,1,c,0*07
$GPRMC,093535,V,,,,,,,140501,,*39
$GPRMB,V,,,,,,,,,,,,V*66
$GPGGA,093535,,,,,0,00,,,M,,M,,*6F
$GPGSA,A,1,,,,,,,,,,,,,,,*1E
$GPGSV,3,1,11,03,52,276,47,08,11,354,40,15,70,098,47,17,59,083,47*72
$GPGSV,3,2,11,21,15,182,00,22,35,211,44,23,48,137,46,26,20,060,45*7B
$GPGSV,3,3,11,27,15,330,00,28,34,304,00,31,05,294,00,,,,*4A
$PGRME,,M,,M,,M*00
$GPGLL,,,,,093536,*5A
$PGRMZ,,,*7E
$PGRMM,WGS 84*06
$GPBOD,,T,,M,,*47
$GPRTE,1,1,c,0*07
$GPRMC,093537,V,,,,,,,140501,,*3B
$GPRMB,V,,,,,,,,,,,,V*66
$GPGGA,093537,,,,,0,00,,,M,,M,,*6D
$GPGSA,A,1,,,,,,,,,,,,,,,*1E
$GPGSV,3,1,11,03,52,276,47,08,11,354,40,15,70,098,47,17,59,083,47*72
$GPGSV,3,2,11,21,15,182,41,22,35,211,45,23,48,137,47,26,20,060,45*7E
$GPGSV,3,3,11,27,15,330,00,28,34,304,00,31,05,294,40,,,,*4E
$PGRME,,M,,M,,M*00
$GPGLL,,,,,093538,*54
$PGRMZ,,,*7E
$PGRMM,WGS 84*06
$GPBOD,,T,,M,,*47
$GPRTE,1,1,c,0*07
$GPRMC,093539,A,6126.823,N,02351.864,E,000.0,360.0,140501,006.0,E*74
$GPRMB,A,,,,,,,,,,,,V*71
$GPGGA,093540,6126.823,N,02351.864,E,1,00,1.6,181.4,M,20.7,M,,*42
$GPGSA,A,3,03,,15,17,,22,23,26,,,,,2.7,1.6,2.2*34
$GPGSV,3,1,11,03,52,276,47,08,11,354,39,15,70,098,47,17,59,083,47*7C
$GPGSV,3,2,11,21,15,182,41,22,35,211,45,23,48,137,47,26,20,060,45*7E
$GPGSV,3,3,11,27,15,330,00,28,34,304,00,31,05,294,40,,,,*4E
$PGRME,6.4,M,8.7,M,10.8,M*1A
$GPGLL,6126.823,N,02351.864,E,093540,A*24
$PGRMZ,596,f,3*11
$PGRMM,WGS 84*06
$GPBOD,,T,,M,,*47
$GPRTE,1,1,c,0*07
$GPRMC,093541,A,6126.823,N,02351.864,E,000.0,360.0,140501,006.0,E*7B
$GPRMB,A,,,,,,,,,,,,V*71
$GPGGA,093542,6126.823,N,02351.864,E,1,06,1.6,181.3,M,20.7,M,,*41
$GPGSA,A,3,03,,15,17,,22,23,26,,,,,2.7,1.6,2.2*34
$GPGSV,3,1,11,03,52,276,47,08,11,354,40,15,70,098,47,17,59,083,47*72
$GPGSV,3,2,11,21,15,182,41,22,35,211,44,23,48,137,46,26,20,060,45*7E
$GPGSV,3,3,11,27,15,330,41,28,34,304,47,31,05,294,40,,,,*48
$PGRME,6.4,M,8.7,M,10.8,M*1A
$GPGLL,6126.823,N,02351.865,E,093542,A*27
$PGRMZ,593,f,3*14
$PGRMM,WGS 84*06
$GPBOD,,T,,M,,*47
$GPRTE,1,1,c,0*07
$GPRMC,093543,A,6126.823,N,02351.865,E,000.0,360.0,140501,006.0,E*78
$GPRMB,A,,,,,,,,,,,,V*71
$GPGGA,093544,6126.824,N,02351.864,E,1,06,1.6,180.1,M,20.7,M,,*43
$GPGSA,A,3,03,08,15,17,21,22,23,26,,,31,,2.7,1.6,2.2*3D
$GPGSV,3,1,11,03,52,276,47,08,11,354,40,15,70,098,47,17,59,083,47*72
$GPGSV,3,2,11,21,15,182,41,22,35,211,44,23,48,137,46,26,20,060,45*7E
$GPGSV,3,3,11,27,15,330,42,28,34,304,46,31,05,294,40,,,,*4A
$PGRME,3.6,M,5.3,M,6.4,M*2F
$GPGLL,6126.824,N,02351.864,E,093544,A*27
$PGRMZ,589,f,3*1F
$PGRMM,WGS 84*06
$GPBOD,,T,,M,,*47
$GPRTE,1,1,c,0*07
$GPRMC,093545,A,6126.824,N,02351.864,E,000.0,360.0,140501,006.0,E*78
$GPRMB,A,,,,,,,,,,,,V*71
$GPGGA,093546,6126.824,N,02351.864,E,1,09,0.9,179.2,M,20.7,M,,*45
$GPGSA,A,3,03,08,15,17,21,22,23,26,,,31,,1.6,0.9,1.3*33
$GPGSV,3,1,11,03,52,276,47,08,11,354,40,15,70,098,47,17,59,083,47*72
$GPGSV,3,2,11,21,15,182,41,22,35,211,45,23,48,137,47,26,20,060,45*7E
$GPGSV,3,3,11,27,15,330,42,28,34,304,47,31,05,294,41,,,,*4A
$PGRME,3.6,M,5.3,M,6.4,M*2F
$GPGLL,6126.824,N,02351.864,E,093546,A*25
$PGRMZ,587,f,3*11
$PGRMM,WGS 84*06
$GPBOD,,T,,M,,*47
$GPRTE,1,1,c,0*07
$GPRMC,093547,A,6126.825,N,02351.864,E,000.0,360.0,140501,006.0,E*7B
$GPRMB,A,,,,,,,,,,,,V*71
$GPGGA,093548,6126.825,N,02351.864,E,1,09,0.9,178.9,M,20.7,M,,*40
$GPGSA,A,3,03,08,15,17,21,22,23,26,,,31,,1.6,0.9,1.3*33
$GPGSV,3,1,11,03,52,276,47,08,11,354,40,15,70,098,47,17,59,083,47*72
$GPGSV,3,2,11,21,15,182,41,22,35,211,45,23,48,137,47,26,20,060,45*7E
$GPGSV,3,3,11,27,15,330,42,28,34,304,47,31,05,294,41,,,,*4A
$PGRME,3.6,M,5.3,M,6.4,M*2F
$GPGLL,6126.825,N,02351.864,E,093548,A*2A
$PGRMZ,586,f,3*10
$PGRMM,WGS 84*06
$GPBOD,,T,,M,,*47
$GPRTE,1,1,c,0*07
$GPRMC,093549,A,6126.825,N,02351.863,E,000.0,360.0,140501,006.0,E*72
$GPRMB,A,,,,,,,,,,,,V*71
$GPGGA,093550,6126.825,N,02351.863,E,1,09,0.9,178.7,M,20.7,M,,*40
$GPGSA,A,3,03,08,15,17,21,22,23,26,27,,31,,1.6,0.9,1.3*36
$GPGSV,3,1,11,03,52,276,47,08,11,354,40,15,70,098,47,17,59,083,47*72
$GPGSV,3,2,11,21,15,182,41,22,35,211,45,23,48,137,47,26,20,060,45*7E
$GPGSV,3,3,11,27,15,330,42,28,34,304,46,31,05,294,41,,,,*4B
$PGRME,3.4,M,5.3,M,6.3,M*2A
$GPGLL,6126.825,N,02351.863,E,093550,A*24
$PGRMZ,586,f,3*10
$PGRMM,WGS 84*06
$GPBOD,,T,,M,,*47
$GPRTE,1,1,c,0*07
$GPRMC,093551,A,6126.825,N,02351.863,E,000.0,360.0,140501,006.0,E*7B
$GPRMB,A,,,,,,,,,,,,V*71
$GPGGA,093552,6126.825,N,02351.863,E,1,10,0.9,178.6,M,20.7,M,,*4B
$GPGSA,A,3,03,08,15,17,21,22,23,26,27,,31,,1.6,0.9,1.3*36
$GPGSV,3,1,11,03,52,276,47,08,11,354,40,15,70,098,47,17,59,083,47*72
$GPGSV,3,2,11,21,15,182,40,22,35,211,44,23,48,137,47,26,20,060,45*7E
$GPGSV,3,3,11,27,15,330,42,28,34,304,46,31,05,294,41,,,,*4B
$PGRME,3.4,M,5.3,M,6.3,M*2A
$GPGLL,6126.825,N,02351.863,E,093552,A*26
$PGRMZ,586,f,3*10
$PGRMM,WGS 84*06
$GPBOD,,T,,M,,*47
$GPRTE,1,1,c,0*07
$GPRMC,093553,A,6126.825,N,02351.863,E,000.0,360.0,140501,006.0,E*79
$GPRMB,A,,,,,,,,,,,,V*71
$GPGGA,093554,6126.825,N,02351.863,E,1,10,0.9,178.5,M,20.7,M,,*4E
$GPGSA,A,3,03,08,15,17,21,22,23,26,27,,31,,1.6,0.9,1.3*36
$GPGSV,3,1,11,03,52,276,47,08,11,354,40,15,70,098,48,17,59,083,48*72
$GPGSV,3,2,11,21,15,182,41,22,35,211,44,23,48,137,47,26,20,060,45*7F
$GPGSV,3,3,11,27,15,330,42,28,34,304,46,31,05,294,41,,,,*4B
$PGRME,3.4,M,5.3,M,6.3,M*2A
$GPGLL,6126.825,N,02351.863,E,093554,A*20
$PGRMZ,586,f,3*10
$PGRMM,WGS 84*06
$GPBOD,,T,,M,,*47
$GPRTE,1,1,c,0*07
$GPRMC,093555,A,6126.825,N,02351.863,E,000.0,360.0,140501,006.0,E*7F
$GPRMB,A,,,,,,,,,,,,V*71
$GPGGA,093556,6126.825,N,02351.863,E,1,10,0.9,178.5,M,20.7,M,,*4C
$GPGSA,A,3,03,08,15,17,21,22,23,26,27,,31,,1.6,0.9,1.3*36
$GPGSV,3,1,11,03,52,276,47,08,11,354,40,15,70,098,48,17,59,083,48*72
$GPGSV,3,2,11,21,15,182,41,22,35,211,44,23,48,137,47,26,20,060,45*7F
$GPGSV,3,3,11,27,15,330,42,28,34,304,46,31,05,294,41,,,,*4B
$PGRME,3.4,M,5.3,M,6.3,M*2A
$GPGLL,6126.825,N,02351.863,E,093556,A*22
$PGRMZ,585,f,3*13
$PGRMM,WGS 84*06
$GPBOD,,T,,M,,*47
$GPRTE,1,1,c,0*07
$GPRMC,093557,A,6126.825,N,02351.864,E,000.0,360.0,140501,006.0,E*7A
$GPRMB,A,,,,,,,,,,,,V*71
$GPGGA,093558,6126.825,N,02351.864,E,1,10,0.9,178.4,M,20.7,M,,*44
$GPGSA,A,3,03,08,15,17,21,22,23,26,27,,31,,1.6,0.9,1.3*36
$GPGSV,3,1,11,03,52,276,47,08,11,354,40,15,70,098,48,17,59,083,48*72
$GPGSV,3,2,11,21,15,182,40,22,35,211,44,23,48,137,47,26,20,060,45*7E
$GPGSV,3,3,11,27,15,330,42,28,34,304,46,31,05,294,41,,,,*4B
$PGRME,3.4,M,5.3,M,6.3,M*2A
$GPGLL,6126.825,N,02351.864,E,093558,A*2B
$PGRMZ,585,f,3*13
$PGRMM,WGS 84*06
$GPBOD,,T,,M,,*47
$GPRTE,1,1,c,0*07
$GPRMC,093559,A,6126.825,N,02351.864,E,000.0,360.0,140501,006.0,E*74
$GPRMB,A,,,,,,,,,,,,V*71
$GPGGA,093600,6126.825,N,02351.864,E,1,10,0.9,178.5,M,20.7,M,,*4B
$GPGSA,A,3,03,08,15,17,21,22,23,26,27,,31,,1.6,0.9,1.3*36
$GPGSV,3,1,11,03,52,276,47,08,11,354,41,15,70,098,48,17,59,083,48*73
$GPGSV,3,2,11,21,15,182,40,22,35,211,44,23,48,137,47,26,20,060,46*7D
$GPGSV,3,3,11,27,15,330,42,28,34,304,46,31,05,294,41,,,,*4B
$PGRME,3.4,M,5.3,M,6.3,M*2A
$GPGLL,6126.825,N,02351.864,E,093600,A*25
$PGRMZ,586,f,3*10
$PGRMM,WGS 84*06
$GPBOD,,T,,M,,*47
$GPRTE,1,1,c,0*07
$GPRMC,093601,A,6126.824,N,02351.864,E,000.0,360.0,140501,006.0,E*7B
$GPRMB,A,,,,,,,,,,,,V*71
$GPGGA,093602,6126.824,N,02351.864,E,1,10,0.9,178.5,M,20.7,M,,*48
$GPGSA,A,3,03,08,15,17,21,22,23,26,27,,31,,1.6,0.9,1.3*36
$GPGSV,3,1,11,03,52,276,47,08,11,354,41,15,70,098,47,17,59,083,48*7C
$GPGSV,3,2,11,21,15,182,40,22,35,211,44,23,48,137,47,26,20,060,45*7E
$GPGSV,3,3,11,27,15,330,42,28,34,304,46,31,05,294,41,,,,*4B
$PGRME,3.4,M,5.3,M,6.3,M*2A
$GPGLL,6126.824,N,02351.864,E,093602,A*26
$PGRMZ,586,f,3*10
$PGRMM,WGS 84*06
$GPBOD,,T,,M,,*47
$GPRTE,1,1,c,0*07
$GPRMC,093603,A,6126.825,N,02351.864,E,000.0,360.0,140501,006.0,E*78
$GPRMB,A,,,,,,,,,,,,V*71
$GPGGA,093604,6126.825,N,02351.864,E,1,10,0.9,178.6,M,20.7,M,,*4C
$GPGSA,A,3,03,08,15,17,21,22,23,26,27,,31,,1.6,0.9,1.3*36
$GPGSV,3,1,11,03,52,276,47,08,11,354,40,15,70,098,47,17,59,083,48*7D
$GPGSV,3,2,11,21,15,182,40,22,35,211,44,23,48,137,47,26,20,060,45*7E
$GPGSV,3,3,11,27,15,330,42,28,34,304,46,31,05,294,41,,,,*4B
$PGRME,3.4,M,5.3,M,6.3,M*2A
$GPGLL,6126.825,N,02351.864,E,093604,A*21
$PGRMZ,586,f,3*10
$PGRMM,WGS 84*06
$GPBOD,,T,,M,,*47
$GPRTE,1,1,c,0*07
$GPRMC,093605,A,6126.825,N,02351.864,E,000.0,360.0,140501,006.0,E*7E
$GPRMB,A,,,,,,,,,,,,V*71
$GPGGA,093606,6126.825,N,02351.864,E,1,10,0.9,178.7,M,20.7,M,,*4F
$GPGSA,A,3,03,08,15,17,21,22,23,26,27,,31,,1.6,0.9,1.3*36
$GPGSV,3,1,11,03,52,276,47,08,11,354,40,15,70,098,47,17,59,083,47*72
$GPGSV,3,2,11,21,15,182,40,22,35,211,44,23,48,137,47,26,20,060,45*7E
$GPGSV,3,3,11,27,15,330,42,28,34,304,45,31,05,294,41,,,,*48
$PGRME,3.4,M,5.3,M,6.3,M*2A
$GPGLL,6126.825,N,02351.864,E,093606,A*23
$PGRMZ,586,f,3*10
$PGRMM,WGS 84*06
$GPBOD,,T,,M,,*47
$GPRTE,1,1,c,0*07
$GPRMC,093607,A,6126.825,N,02351.864,E,000.0,360.0,140501,006.0,E*7C
$GPRMB,A,,,,,,,,,,,,V*71
$GPGGA,093608,6126.825,N,02351.864,E,1,10,0.8,178.8,M,20.7,M,,*4F
$GPGSA,A,3,03,08,15,17,21,22,23,26,27,28,31,,1.5,0.8,1.3*3E
$GPGSV,3,1,11,03,52,276,47,08,11,354,40,15,70,098,47,17,59,083,47*72
$GPGSV,3,2,11,21,15,182,39,22,35,211,43,23,48,137,46,26,20,060,45*76
$GPGSV,3,3,11,27,15,330,41,28,34,304,45,31,05,294,40,,,,*4A
$PGRME,3.3,M,5.2,M,6.2,M*2D
$GPGLL,6126.825,N,02351.864,E,093608,A*2D
$PGRMZ,587,f,3*11
$PGRMM,WGS 84*06
$GPBOD,,T,,M,,*47
$GPRTE,1,1,c,0*07
$GPRMC,093609,A,6126.825,N,02351.864,E,000.0,360.0,140501,006.0,E*72
$GPRMB,A,,,,,,,,,,,,V*71
$GPGGA,093610,6126.825,N,02351.864,E,1,11,0.8,178.8,M,20.7,M,,*47
$GPGSA,A,3,03,08,15,17,21,22,23,26,27,28,31,,1.5,0.8,1.3*3E
$GPGSV,3,1,11,03,52,276,47,08,11,354,40,15,70,098,47,17,59,083,47*72
$GPGSV,3,2,11,21,15,182,39,22,35,211,44,23,48,137,47,26,20,060,45*70
$GPGSV,3,3,11,27,15,330,42,28,34,304,45,31,05,294,41,,,,*48
$PGRME,3.3,M,5.2,M,6.2,M*2D
$GPGLL,6126.825,N,02351.864,E,093610,A*24
$PGRMZ,587,f,3*11
$PGRMM,WGS 84*06
$GPBOD,,T,,M,,*47
$GPRTE,1,1,c,0*07
$GPRMC,093611,A,6126.825,N,02351.864,E,000.0,360.0,140501,006.0,E*7B
$GPRMB,A,,,,,,,,,,,,V*71
$GPGGA,093612,6126.825,N,02351.864,E,1,11,0.8,178.9,M,20.7,M,,*44
$GPGSA,A,3,03,08,15,17,21,22,23,26,27,28,31,,1.5,0.8,1.3*3E
$GPGSV,3,1,11,03,52,276,47,08,11,354,40,15,70,098,48,17,59,083,48*72
$GPGSV,3,2,11,21,15,182,39,22,35,211,44,23,48,137,47,26,20,060,45*70
$GPGSV,3,3,11,27,15,330,42,28,34,304,45,31,05,294,41,,,,*48
$PGRME,3.3,M,5.2,M,6.2,M*2D
$GPGLL,6126.825,N,02351.864,E,093612,A*26
$PGRMZ,587,f,3*11
$PGRMM,WGS 84*06
$GPBOD,,T,,M,,*47
$GPRTE,1,1,c,0*07
$GPRMC,093613,A,6126.825,N,02351.864,E,000.0,360.0,140501,006.0,E*79
$GPRMB,A,,,,,,,,,,,,V*71
$GPGGA,093614,6126.825,N,02351.864,E,1,11,0.8,178.9,M,20.7,M,,*42
$GPGSA,A,3,03,08,15,17,21,22,23,26,27,28,31,,1.5,0.8,1.3*3E
$GPGSV,3,1,11,03,52,276,47,08,11,354,40,15,70,098,48,17,59,083,48*72
$GPGSV,3,2,11,21,15,182,39,22,35,211,43,23,48,137,47,26,20,060,45*77
$GPGSV,3,3,11,27,15,330,41,28,34,304,45,31,05,294,40,,,,*4A
$PGRME,3.3,M,5.2,M,6.2,M*2D
$GPGLL,6126.825,N,02351.864,E,093614,A*20
$PGRMZ,587,f,3*11
$PGRMM,WGS 84*06
$GPBOD,,T,,M,,*47
$GPRTE,1,1,c,0*07
$GPRMC,093615,A,6126.825,N,02351.864,E,000.0,360.0,140501,006.0,E*7F
$GPRMB,A,,,,,,,,,,,,V*71
$GPGGA,093616,6126.825,N,02351.864,E,1,11,0.8,178.9,M,20.7,M,,*40
$GPGSA,A,3,03,08,15,17,21,22,23,26,27,28,31,,1.5,0.8,1.3*3E
$GPGSV,3,1,11,03,52,276,47,08,11,354,40,15,70,098,48,17,59,083,48*72
$GPGSV,3,2,11,21,15,182,39,22,35,211,43,23,48,137,47,26,20,060,45*77
$GPGSV,3,3,11,27,15,330,42,28,34,304,45,31,05,294,41,,,,*48
$PGRME,3.3,M,5.2,M,6.2,M*2D
$GPGLL,6126.825,N,02351.864,E,093616,A*22
$PGRMZ,587,f,3*11
$PGRMM,WGS 84*06
$GPBOD,,T,,M,,*47
$GPRTE,1,1,c,0*07
$GPRMC,093617,A,6126.825,N,02351.864,E,000.0,360.0,140501,006.0,E*7D
$GPRMB,A,,,,,,,,,,,,V*71
$GPGGA,093618,6126.825,N,02351.864,E,1,11,0.8,178.8,M,20.7,M,,*4F
$GPGSA,A,3,03,08,15,17,21,22,23,26,27,28,31,,1.5,0.8,1.3*3E
$GPGSV,3,1,11,03,52,276,47,08,11,353,41,15,70,098,48,17,59,083,48*74
$GPGSV,3,2,11,21,15,182,39,22,35,211,43,23,48,137,47,26,20,060,45*77
$GPGSV,3,3,11,27,15,330,42,28,34,304,45,31,05,294,41,,,,*48
$PGRME,3.3,M,5.2,M,6.2,M*2D
$GPGLL,6126.825,N,02351.864,E,093618,A*2C
$PGRMZ,587,f,3*11
$PGRMM,WGS 84*06
$GPBOD,,T,,M,,*47
$GPRTE,1,1,c,0*07
$GPRMC,093619,A,6126.825,N,02351.864,E,000.0,360.0,140501,006.0,E*73
$GPRMB,A,,,,,,,,,,,,V*71
$GPGGA,093620,6126.825,N,02351.864,E,1,11,0.8,178.7,M,20.7,M,,*4B
$GPGSA,A,3,03,08,15,17,21,22,23,26,27,28,31,,1.5,0.8,1.3*3E
$GPGSV,3,1,11,03,52,276,47,08,11,353,41,15,70,098,48,17,59,083,48*74
$GPGSV,3,2,11,21,15,182,39,22,35,211,43,23,48,137,47,26,20,060,45*77
$GPGSV,3,3,11,27,15,330,42,28,34,304,45,31,05,294,41,,,,*48
$PGRME,3.3,M,5.2,M,6.2,M*2D
$GPGLL,6126.825,N,02351.864,E,093620,A*27
$PGRMZ,586,f,3*10
$PGRMM,WGS 84*06
$GPBOD,,T,,M,,*47
$GPRTE,1,1,c,0*07
$GPRMC,093621,A,6126.825,N,02351.864,E,000.0,360.0,140501,006.0,E*78
$GPRMB,A,,,,,,,,,,,,V*71
$GPGGA,093622,6126.825,N,02351.864,E,1,11,0.8,178.7,M,20.7,M,,*49
$GPGSA,A,3,03,08,15,17,21,22,23,26,27,28,31,,1.5,0.8,1.3*3E
$GPGSV,3,1,11,03,52,276,47,08,11,353,41,15,70,098,48,17,59,083,48*74
$GPGSV,3,2,11,21,15,182,39,22,35,211,43,23,48,137,47,26,20,060,45*77
$GPGSV,3,3,11,27,15,330,42,28,34,304,45,31,05,294,41,,,,*48
$PGRME,3.3,M,5.2,M,6.2,M*2D
$GPGLL,6126.825,N,02351.864,E,093622,A*25
$PGRMZ,586,f,3*10
$PGRMM,WGS 84*06
$GPBOD,,T,,M,,*47
$GPRTE,1,1,c