$GPRMC,141859,A,6127.445,N,02351.125,E,000.0,360.0,010403,006.0,E*77
$GPRMB,A,,,,,,,,,,,,V*71
$GPGGA,141859,6127.445,N,02351.125,E,1,06,2.2,169.5,M,20.7,M,,*4E
$GPGSA,A,3,,07,09,11,,18,,23,28,,,,3.5,2.2,2.7*3D
$GPGSV,3,1,10,03,10,179,00,07,02,331,42,09,16,026,47,11,57,267,44*7D
$GPGSV,3,2,10,14,51,106,33,18,08,066,39,20,09,240,00,23,03,064,38*72
$GPGSV,3,3,10,28,19,301,46,31,30,196,00,,,,,,,,*75
$PGRME,9.6,M,12.4,M,15.7,M*25
$GPGLL,6127.445,N,02351.125,E,141900,A*23
$PGRMZ,557,f,3*1C
$PGRMM,WGS 84*06
$GPBOD,,T,,M,,*47
$GPRTE,0,1,c,*36
$GPRMC,141901,A,6127.445,N,02351.125,E,000.0,360.0,010403,006.0,E*7B
$GPRMB,A,,,,,,,,,,,,V*71
$GPGGA,141901,6127.445,N,02351.125,E,1,06,2.2,169.8,M,20.7,M,,*4F
$GPGSA,A,3,,07,09,11,,18,,23,28,,,,3.5,2.2,2.7*3D
$GPGSV,3,1,10,03,10,179,00,07,02,331,42,09,16,026,48,11,57,267,44*72
$GPGSV,3,2,10,14,51,105,33,18,08,066,39,20,09,240,00,23,03,064,38*71
$GPGSV,3,3,10,28,19,301,45,31,30,196,00,,,,,,,,*76
$PGRME,9.6,M,12.4,M,15.7,M*25
$GPGLL,6127.445,N,02351.125,E,141902,A*21
$PGRMZ,557,f,3*1C
$PGRMM,WGS 84*06
$GPBOD,,T,,M,,*47
$GPRTE,0,1,c,*36
$GPRMC,141903,A,6127.445,N,02351.125,E,000.0,360.0,010403,006.0,E*79
$GPRMB,A,,,,,,,,,,,,V*71
$GPGGA,141903,6127.445,N,02351.125,E,1,06,2.2,169.6,M,20.7,M,,*43
$GPGSA,A,3,,07,09,11,,18,,23,28,,,,3.5,2.2,2.7*3D
$GPGSV,3,1,10,03,10,179,00,07,02,331,42,09,16,026,48,11,57,267,44*72
$GPGSV,3,2,10,14,51,105,34,18,08,066,39,20,09,240,00,23,03,064,38*76
$GPGSV,3,3,10,28,19,301,45,31,30,196,00,,,,,,,,*76
$PGRME,9.6,M,12.4,M,15.7,M*25
$GPGLL,6127.445,N,02351.124,E,141904,A*26
$PGRMZ,554,f,3*1F
$PGRMM,WGS 84*06
$GPBOD,,T,,M,,*47
$GPRTE,0,1,c,*36
$GPRMC,141905,A,6127.445,N,02351.124,E,000.0,360.0,010403,006.0,E*7E
$GPRMB,A,,,,,,,,,,,,V*71
$GPGGA,141905,6127.445,N,02351.124,E,1,06,2.2,169.1,M,20.7,M,,*43
$GPGSA,A,3,,07,09,11,,18,,23,28,,,,3.7,2.2,2.9*31
$GPGSV,3,1,10,03,10,179,00,07,02,331,42,09,16,026,48,11,57,267,43*75
$GPGSV,3,2,10,14,51,105,34,18,08,066,39,20,09,240,00,23,03,064,38*76
$GPGSV,3,3,10,28,19,301,45,31,30,196,00,,,,,,,,*76
$PGRME,9.6,M,12.3,M,15.6,M*23
$GPGLL,6127.445,N,02351.124,E,141906,A*24
$PGRMZ,555,f,3*1E
$PGRMM,WGS 84*06
$GPBOD,,T,,M,,*47
$GPRTE,0,1,c,*36
$GPRMC,141907,A,6127.445,N,02351.124,E,000.0,360.0,010403,006.0,E*7C
$GPRMB,A,,,,,,,,,,,,V*71
$GPGGA,141907,6127.445,N,02351.124,E,1,06,2.2,169.2,M,20.7,M,,*42
$GPGSA,A,3,,07,09,11,,18,,23,28,,,,3.5,2.2,2.7*3D
$GPGSV,3,1,10,03,10,179,00,07,02,331,42,09,16,026,48,11,57,267,43*75
$GPGSV,3,2,10,14,51,105,34,18,08,066,39,20,09,240,00,23,03,064,38*76
$GPGSV,3,3,10,28,19,301,44,31,30,196,00,,,,,,,,*77
$PGRME,9.6,M,12.3,M,15.6,M*23
$GPGLL,6127.445,N,02351.124,E,141908,A*2A
$PGRMZ,555,f,3*1E
$PGRMM,WGS 84*06
$GPBOD,,T,,M,,*47
$GPRTE,0,1,c,*36
$GPRMC,141909,A,6127.445,N,02351.124,E,000.0,360.0,010403,006.0,E*72
$GPRMB,A,,,,,,,,,,,,V*71
$GPGGA,141909,6127.445,N,02351.124,E,1,06,2.2,169.3,M,20.7,M,,*4D
$GPGSA,A,3,,07,09,11,,18,,23,28,,,,3.5,2.2,2.7*3D
$GPGSV,3,1,10,03,10,179,00,07,02,331,42,09,16,026,48,11,57,267,44*72
$GPGSV,3,2,10,14,51,105,33,18,08,066,40,20,09,240,00,23,03,064,38*7F
$GPGSV,3,3,10,28,19,301,44,31,30,196,00,,,,,,,,*77
$PGRME,9.6,M,12.3,M,15.6,M*23
$GPGLL,6127.445,N,02351.124,E,141910,A*23
$PGRMZ,553,f,3*18
$PGRMM,WGS 84*06
$GPBOD,,T,,M,,*47
$GPRTE,0,1,c,*36
$GPRMC,141911,A,6127.445,N,02351.124,E,000.0,360.0,010403,006.0,E*7B
$GPRMB,A,,,,,,,,,,,,V*71
$GPGGA,141911,6127.445,N,02351.124,E,1,06,2.2,168.2,M,20.7,M,,*44
$GPGSA,A,3,,07,09,11,,18,,23,28,,,,3.7,2.2,2.9*31
$GPGSV,3,1,10,03,10,179,00,07,02,331,42,09,16,026,48,11,57,267,44*72
$GPGSV,3,2,10,14,51,105,34,18,08,066,40,20,09,240,00,23,03,064,38*78
$GPGSV,3,3,10,28,19,301,45,31,30,196,00,,,,,,,,*76
$PGRME,9.6,M,12.3,M,15.6,M*23
$GPGLL,6127.445,N,02351.124,E,141912,A*21
$PGRMZ,551,f,3*1A
$PGRMM,WGS 84*06
$GPBOD,,T,,M,,*47
$GPRTE,0,1,c,*36
$GPRMC,141913,A,6127.445,N,02351.124,E,000.0,360.0,010403,006.0,E*79
$GPRMB,A,,,,,,,,,,,,V*71
$GPGGA,141913,6127.445,N,02351.124,E,1,06,2.2,167.8,M,20.7,M,,*43
$GPGSA,A,3,,07,09,11,,18,,23,28,,,,3.5,2.2,2.7*3D
$GPGSV,3,1,10,03,10,179,00,07,02,331,43,09,16,026,48,11,57,267,44*73
$GPGSV,3,2,10,14,51,105,34,18,08,066,40,20,09,240,00,23,03,064,38*78
$GPGSV,3,3,10,28,19,301,45,31,30,196,00,,,,,,,,*76
$PGRME,9.6,M,12.3,M,15.6,M*23
$GPGLL,6127.445,N,02351.124,E,141914,A*27
$PGRMZ,550,f,3*1B
$PGRMM,WGS 84*06
$GPBOD,,T,,M,,*47
$GPRTE,0,1,c,*36
$GPRMC,141915,A,6127.445,N,02351.124,E,000.0,360.0,010403,006.0,E*7F
$GPRMB,A,,,,,,,,,,,,V*71
$GPGGA,141915,6127.445,N,02351.124,E,1,06,2.2,167.7,M,20.7,M,,*4A
$GPGSA,A,3,,07,09,11,,18,,23,28,,,,3.5,2.2,2.7*3D
$GPGSV,3,1,10,03,10,179,00,07,02,331,42,09,16,026,48,11,57,267,45*73
$GPGSV,3,2,10,14,51,105,33,18,08,066,40,20,09,240,00,23,03,064,38*7F
$GPGSV,3,3,10,28,19,301,44,31,30,196,00,,,,,,,,*77
$PGRME,9.6,M,12.3,M,15.6,M*23
$GPGLL,6127.445,N,02351.124,E,141916,A*25
$PGRMZ,550,f,3*1B
$PGRMM,WGS 84*06
$GPBOD,,T,,M,,*47
$GPRTE,0,1,c,*36
$GPRMC,141917,A,6127.445,N,02351.124,E,000.0,360.0,010403,006.0,E*7D
$GPRMB,A,,,,,,,,,,,,V*71
$GPGGA,141917,6127.445,N,02351.124,E,1,06,2.2,167.3,M,20.7,M,,*4C
$GPGSA,A,3,,07,09,11,,18,,23,28,,,,3.5,2.2,2.7*3D
$GPGSV,3,1,10,03,10,179,00,07,02,331,42,09,16,026,48,11,57,267,45*73
$GPGSV,3,2,10,14,51,105,34,18,07,066,40,20,09,240,00,23,03,064,38*77
$GPGSV,3,3,10,28,19,301,44,31,30,196,00,,,,,,,,*77
$PGRME,9.6,M,12.3,M,15.6,M*23
$GPGLL,6127.445,N,02351.124,E,141918,A*2B
$PGRMZ,548,f,3*12
$PGRMM,WGS 84*06
$GPBOD,,T,,M,,*47
$GPRTE,0,1,c,*36
$GPRMC,141919,A,6127.445,N,02351.124,E,000.0,360.0,010403,006.0,E*73
$GPRMB,A,,,,,,,,,,,,V*71
$GPGGA,141919,6127.445,N,02351.124,E,1,06,2.2,166.8,M,20.7,M,,*48
$GPGSA,A,3,,07,09,11,,18,,23,28,,,,3.5,2.2,2.7*3D
$GPGSV,3,1,10,03,10,179,00,07,02,331,42,09,16,026,48,11,57,267,45*73
$GPGSV,3,2,10,14,51,105,32,18,07,066,40,20,09,240,00,23,03,064,38*71
$GPGSV,3,3,10,28,19,301,44,31,30,196,00,,,,,,,,*77
$PGRME,9.6,M,12.3,M,15.6,M*23
$GPGLL,6127.445,N,02351.124,E,141920,A*20
$PGRMZ,546,f,3*1C
$PGRMM,WGS 84*06
$GPBOD,,T,,M,,*47
$GPRTE,0,1,c,*36
$GPRMC,141921,A,6127.445,N,02351.123,E,000.0,360.0,010403,006.0,E*7F
$GPRMB,A,,,,,,,,,,,,V*71
$GPGGA,141921,6127.445,N,02351.123,E,1,06,2.2,165.9,M,20.7,M,,*46
$GPGSA,A,3,,07,09,11,,18,,23,2