$GPGLL,5804.1463,N,01155.0695,E,081117.563,A*39
$GPGGA,081117.56,5804.1463,N,01155.0695,E,1,04,2.0,-0039,M,,,,*3E
$GPRMB,A,0.51,R,SIM003,SIM001,5803.6367,N,01156.0717,E,000.7,134.,016.0,V*10
$GPRMC,081117.56,A,5804.1463,N,01155.0695,E,21.7,132.6,100502,01.,E*63
$GPAPB,A,A,0.5,R,N,,,88.9,M,SIM001,132.7,M,,,*07
$GPGSA,A,3,01,02,03,04,,,,,,,,,2.0,2.0,2.0*34
$GPGSV,3,1,12,17,66,091,,22,60,238,,28,42,297,,03,40,275,*7E
$GPGSV,3,2,12,23,32,128,,18,27,139,,19,22,303,,06,19,102,*72
$GPGSV,3,3,12,10,13,028,,21,06,167,,27,06,346,,26,03,066,*73
$GPGLL,5804.1366,N,01155.0752,E,081119.969,A*39
$GPGGA,081119.97,5804.1366,N,01155.0752,E,1,04,2.0,-0039,M,,,,*35
$GPRMB,A,0.50,R,SIM003,SIM001,5803.6367,N,01156.0717,E,000.7,133.,016.1,V*17
$GPRMC,081119.97,A,5804.1366,N,01155.0752,E,21.7,132.2,100502,01.,E*6C
$GPAPB,A,A,0.5,R,N,,,88.9,M,SIM001,132.3,M,,,*03
$GPGSA,A,3,01,02,03,04,,,,,,,,,2.0,2.0,2.0*34
$GPGSV,3,1,12,17,66,091,,22,60,238,,28,42,297,,03,40,275,*7E
$GPGSV,3,2,12,23,32,128,,18,27,139,,19,22,303,,06,19,102,*72
$GPGSV,3,3,12,10,13,028,,21,06,167,,27,06,346,,26,03,066,*73
$GPGLL,5804.1318,N,01155.0781,E,081121.156,A*31
$GPGGA,081121.16,5804.1318,N,01155.0781,E,1,04,2.0,-0039,M,,,,*30
$GPRMB,A,0.49,R,SIM003,SIM001,5803.6367,N,01156.0717,E,000.7,133.,016.2,V*1C
$GPRMC,081121.16,A,5804.1318,N,01155.0781,E,21.7,132.0,100502,01.,E*6B
$GPAPB,A,A,0.5,R,N,,,88.9,M,SIM001,132.1,M,,,*01
$GPGSA,A,3,01,02,03,04,,,,,,,,,2.0,2.0,2.0*34
$GPGSV,3,1,12,17,66,091,,22,60,238,,28,42,297,,03,40,275,*7E
$GPGSV,3,2,12,23,32,128,,18,27,139,,19,22,303,,06,19,102,*72
$GPGSV,3,3,12,10,13,028,,21,06,167,,27,06,346,,26,03,066,*73
$GPGLL,5804.1212,N,01155.0843,E,081123.781,A*35
$GPGGA,081123.78,5804.1212,N,01155.0843,E,1,04,2.0,-0039,M,,,,*30
$GPRMB,A,0.48,R,SIM003,SIM001,5803.6367,N,01156.0717,E,000.7,133.,016.3,V*1C
$GPRMC,081123.78,A,5804.1212,N,01155.0843,E,21.7,131.6,100502,01.,E*6E
$GPAPB,A,A,0.5,R,N,,,88.9,M,SIM001,131.7,M,,,*04
$GPGSA,A,3,01,02,03,04,,,,,,,,,2.0,2.0,2.0*34
$GPGSV,3,1,12,17,66,091,,22,60,238,,28,42,297,,03,40,275,*7E
$GPGSV,3,2,12,23,32,128,,18,27,139,,19,22,303,,06,19,102,*72
$GPGSV,3,3,12,10,13,028,,21,06,167,,27,06,346,,26,03,066,*73
$GPGLL,5804.1118,N,01155.0900,E,081126.156,A*33
$GPGGA,081126.16,5804.1118,N,01155.0900,E,1,04,2.0,-0039,M,,,,*32
$GPRMB,A,0.47,R,SIM003,SIM001,5803.6367,N,01156.0717,E,000.7,132.,016.4,V*15
$GPRMC,081126.16,A,5804.1118,N,01155.0900,E,21.7,131.1,100502,01.,E*6B
$GPAPB,A,A,0.5,R,N,,,88.9,M,SIM001,131.3,M,,,*00
$GPGSA,A,3,01,02,03,04,,,,,,,,,2.0,2.0,2.0*34
$GPGSV,3,1,12,17,66,091,,22,60,238,,28,42,297,,03,40,275,*7E
$GPGSV,3,2,12,23,32,128,,18,27,139,,19,22,303,,06,19,102,*72
$GPGSV,3,3,12,10,13,028,,21,06,167,,27,06,346,,26,03,066,*73
$GPGLL,5804.1070,N,01155.0929,E,081127.375,A*35
$GPGGA,081127.37,5804.1070,N,01155.0929,E,1,04,2.0,-0039,M,,,,*34
$GPRMB,A,0.47,R,SIM003,SIM001,5803.6367,N,01156.0717,E,000.7,132.,016.4,V*15
$GPRMC,081127.37,A,5804.1070,N,01155.0929,E,21.7,130.9,100502,01.,E*64
$GPAPB,A,A,0.5,R,N,,,88.9,M,SIM001,131.1,M,,,*02
$GPGSA,A,3,01,02,03,04,,,,,,,,,2.0,2.0,2.0*34
$GPGSV,3,1,12,17,66,091,,22,60,238,,28,42,297,,03,40,275,*7E
$GPGSV,3,2,12,23,32,128,,18,27,139,,19,22,303,,06,19,102,*72
$GPGSV,3,3,12,10,13,028,,21,06,167,,27,06,346,,26,03,066,*73
$GPGLL,5804.0971,N,01155.0986,E,081129.781,A*38
$GPGGA,081129.78,5804.0971,N,01155.0986,E,1,04,2.0,-0039,M,,,,*3D
$GPRMB,A,0.46,R,SIM003,SIM001,5803.6367,N,01156.0717,E,000.7,132.,017.0,V*11
$GPRMC,081129.78,A,5804.0971,N,01155.0986,E,21.7,135.0,100502,01.,E*61
$GPAPB,A,A,0.5,R,N,,,88.9,M,SIM001,130.7,M,,,*05
$GPGSA,A,3,01,02,03,04,,,,,,,,,2.0,2.0,2.0*34
$GPGSV,3,1,12,17,66,091,,22,60,238,,28,42,297,,03,40,275,*7E
$GPGSV,3,2,12,23,32,128,,18,27,139,,19,22,303,,06,19,102,*72
$GPGSV,3,3,12,10,13,028,,21,06,167,,27,06,346,,26,03,066,*73
$GPGLL,5804.0870,N,01155.1040,E,081132.156,A*3C
$GPGGA,081132.16,5804.0870,N,01155.1040,E,1,04,2.0,-0039,M,,,,*3D
$GPRMB,A,0.45,R,SIM003,SIM001,5803.6367,N,01156.0717,E,000.7,131.,017.1,V*10
$GPRMC,081132.16,A,5804.0870,N,01155.1040,E,21.7,134.6,100502,01.,E*66
$GPAPB,A,A,0.5,R,N,,,88.9,M,SIM001,130.2,M,,,*00
$GPGSA,A,3,01,02,03,04,,,,,,,,,2.0,2.0,2.0*34
$GPGSV,3,1,12,17,66,091,,22,60,238,,28,42,297,,03,40,275,*7E
$GPGSV,3,2,12,23,32,128,,18,27,139,,19,22,303,,06,19,102,*72
$GPGSV,3,3,12,10,13,028,,21,06,167,,27,06,346,,26,03,066,*73
$GPGLL,5804.0819,N,01155.1067,E,081133.375,A*34
$GPGGA,081133.37,5804.0819,N,01155.1067,E,1,04,2.0,-0039,M,,,,*35
$GPRMB,A,0.45,R,SIM003,SIM001,5803.6367,N,01156.0717,E,000.7,131.,017.2,V*13
$GPRMC,081133.37,A,5804.0819,N,01155.1067,E,21.7,134.3,100502,01.,E*6B
$GPAPB,A,A,0.4,R,N,,,88.9,M,SIM001,130.0,M,,,*03
$GPGSA,A,3,01,02,03,04,,,,,,,,,2.0,2.0,2.0*34
$GPGSV,3,1,12,17,66,091,,22,60,238,,28,42,297,,03,40,275,*7E
$GPGSV,3,2,12,23,32,128,,18,27,139,,19,22,303,,06,19,102,*72
$GPGSV,3,3,12,10,13,028,,21,06,167,,27,06,346,,26,03,066,*73
$GPGLL,5804.0718,N,01155.1123,E,081135.781,A*32
$GPGGA,081135.78,5804.0718,N,01155.1123,E,1,04,2.0,-0039,M,,,,*37
$GPRMB,A,0.43,R,SIM003,SIM001,5803.6367,N,01156.0717,E,000.7,131.,017.3,V*14
$GPRMC,081135.78,A,5804.0718,N,01155.1123,E,21.7,133.8,100502,01.,E*65
$GPAPB,A,A,0.4,R,N,,,88.9,M,SIM001,129.5,M,,,*0E
$GPGSA,A,3,01,02,03,04,,,,,,,,,2.0,2.0,2.0*34
$GPGSV,3,1,12,17,66,091,,22,60,238,,28,42,297,,03,40,275,*7E
$GPGSV,3,2,12,23,32,128,,18,27,139,,19,22,303,,06,19,102,*72
$GPGSV,3,3,12,10,13,028,,21,06,167,,27,06,346,,26,03,066,*73
$GPGLL,5804.0619,N,01155.1178,E,081138.156,A*3D
$GPGGA,081138.16,5804.0619,N,01155.1178,E,1,04,2.0,-0039,M,,,,*3C
$GPRMB,A,0.43,R,SIM003,SIM001,5803.6367,N,01156.0717,E,000.7,130.,017.4,V*12
$GPRMC,081138.16,A,5804.0619,N,01155.1178,E,21.7,133.4,100502,01.,E*62
$GPAPB,A,A,0.4,R,N,,,88.9,M,SIM001,129.0,M,,,*0B
$GPGSA,A,3,01,02,03,04,,,,,,,,,2.0,2.0,2.0*34
$GPGSV,3,1,12,17,66,091,,22,60,238,,28,42,297,,03,40,275,*7E
$GPGSV,3,2,12,23,32,128,,18,27,139,,19,22,303,,06,19,102,*72
$GPGSV,3,3,12,10,13,028,,21,06,167,,27,06,346,,26,03,066,*73
$GPGLL,5804.0569,N,01155.1206,E,081139.375,A*31
$GPGGA,081139.38,5804.0569,N,01155.1206,E,1,04,2.0,-0039,M,,,,*3F
$GPRMB,A,0.42,R,SIM003,SIM001,5803.6367,N,01156.0717,E,000.7,130.,017.4,V*13
$GPRMC,081139.38,A,5804.0569,N,01155.1206,E,21.7,133.1,100502,01.,E*64
$GPAPB,A,A,0.4,R,N,,,88.9,M,SIM001,128.7,M,,,*0D
$GPGSA,A,3,01,02,03,04,,,,,,,,,2.0,2.0,2.0*34
$GPGSV,3,1,12,17,66,091,,22,60,238,,28,42,297,,03,40,275,*7E
$GPGSV,3,2,12,23,32,128,,18,27,139,,19,22,303,,06,19,102,*72
$GPGSV,3,3,12,10,13,028,,21,06,167,,27,06,346,,26,03,066,*73
$GPGLL,5804.0471,N,01155.1262,E,081141.781,A*3B
$GPGGA,081141.78,5804.0471,N,01155.1262,E,1,04,2.0,-0039,M,,,,*3E
$GPRMB,A,0.41,R,SIM003,SIM001,5803.6367,N,01156.0717,E,000.6,129.,017.6,V*1B
$GPRMC,081141.78,A,5804.0471,N,01155.1262,E,21.7,132.6,100502,01.,E*63
$GPAPB,A,A,0.4,R,N,,,88.9,M,SIM001,128.2,M,,,*08
$GPGSA,A,3,01,02,03,04,,,,,,,,,2.0,2.0,2.0*34
$GPGSV,3,1,12,17,66,091,,22,60,238,,28,42,297,,03,40,275,*7E
$GPGSV,3,2,12,23,32,128,,18,27,139,,19,22,303,,06,19,102,*72
$GPGSV,3,3,12,10,13,028,,21,06,167,,27,06,346,,26,03,066,*73
$GPGLL,5804.0373,N,01155.1319,E,081144.188,A*39
$GPGGA,081144.19,5804.0373,N,01155.1319,E,1,04,2.0,-0039,M,,,,*34
$GPRMB,A,0.40,R,SIM003,SIM001,5803.6367,N,01156.0717,E,000.6,129.,017.7,V*1B
$GPRMC,081144.19,A,5804.0373,N,01155.1319,E,21.7,132.1,100502,01.,E*6E
$GPAPB,A,A,0.4,R,N,,,88.9,M,SIM001,127.7,M,,,*02
$GPGSA,A,3,01,02,03,04,,,,,,,,,2.0,2.0,2.0*34
$GPGSV,3,1,12,17,66,091,,22,60,238,,28,42,297,,03,40,275,*7E
$GPGSV,3,2,12,23,32,128,,18,27,139,,19,22,303,,06,19,102,*72
$GPGSV,3,3,12,10,13,028,,21,06,167,,27,06,346,,26,03,066,*73
$GPGLL,5804.0318,N,01155.1352,E,081145.563,A*3B
$GPGGA,081145.56,5804.0318,N,01155.1352,E,1,04,2.0,-0039,M,,,,*3C
$GPRMB,A,0.39,R,SIM003,SIM001,5803.6367,N,01156.0717,E,000.6,129.,017.7,V*15
$GPRMC,081145.56,A,5804.0318,N,01155.1352,E,21.7,131.9,100502,01.,E*6D
$GPAPB,A,A,0.4,R,N,,,88.9,M,SIM001,127.4,M,,,*01
$GPGSA,A,3,01,02,03,04,,,,,,,,,2.0,2.0,2.0*34
$GPGSV,3,1,12,17,66,091,,22,60,238,,28,42,297,,03,40,275,*7E
$GPGSV,3,2,12,23,32,128,,18,27,139,,19,22,303,,06,19,102,*72
$GPGSV,3,3,12,10,13,028,,21,06,167,,27,06,346,,26,03,066,*73
$GPGLL,5804.0221,N,01155.1410,E,081147.969,A*35
$GPGGA,081147.97,5804.0221,N,01155.1410,E,1,04,2.0,-0039,M,,,,*39
$GPRMB,A,0.39,R,SIM003,SIM001,5803.6367,N,01156.0717,E,000.6,128.,017.8,V*1B
$GPRMC,081147.97,A,5804.0221,N,01155.1410,E,21.7,131.3,100502,01.,E*62
$GPAPB,A,A,0.4,R,N,,,88.9,M,SIM001,126.9,M,,,*0D
$GPGSA,A,3,01,02,03,04,,,,,,,,,2.0,2.0,2.0*34
$GPGSV,3,1,12,17,66,091,,22,60,238,,28,42,297,,03,40,275,*7E
$GPGSV,3,2,12,23,32,128,,18,27,139,,19,22,303,,06,19,102,*72
$GPGSV,3,3,12,10,13,028,,21,06,167,,27,06,346,,26,03,066,*73
$GPGLL,5804.0126,N,01155.1468,E,081150.375,A*3F
$GPGGA,081150.37,5804.0126,N,01155.1468,E,1,04,2.0,-0039,M,,,,*3E
$GPRMB,A,0.38,R,SIM003,SIM001,5803.6367,N,01156.0717,E,000.6,128.,018.0,V*1D
$GPRMC,081150.37,A,5804.0126,N,01155.1468,E,21.7,130.8,100502,01.,E*6F
$GPAPB,A,A,0.4,R,N,,,88.9,M,SIM001,126.4,M,,,*00
$GPGSA,A,3,01,02,03,04,,,,,,,,,2.0,2.0,2.0*34
$GPGSV,3,1,12,17,66,091,,22,60,238,,28,42,297,,03,40,275,*7E
$GPGSV,3,2,12,23,32,128,,18,27,139,,19,22,303,,06,19,102,*72
$GPGSV,3,3,12,10,13,028,,21,06,167,,27,06,346,,26,03,066,*73
$GPGLL,5804.0080,N,01155.1496,E,081151.563,A*33
$GPGGA,081151.56,5804.0080,N,01155.1496,E,1,04,2.0,-0039,M,,,,*34
$GPRMB,A,0.37,R,SIM003,SIM001,5803.6367,N,01156.0717,E,000.6,127.,018.0,V*1D
$GPRMC,081151.56,A,5804.0080,N,01155.1496,E,21.7,130.5,100502,01.,E*68
$GPAPB,A,A,0.4,R,N,,,88.9,M,SIM001,126.1,M,,,*05
$GPGSA,A,3,01,02,03,04,,,,,,,,,2.0,2.0,2.0*34
$GPGSV,3,1,12,17,66,091,,22,60,238,,28,42,297,,03,40,275,*7E
$GPGSV,3,2,12,23,32,128,,18,27,139,,19,22,303,,06,19,102,*72
$GPGSV,3,3,12,10,13,028,,21,06,167,,27,06,346,,26,03,066,*73
$GPGLL,5803.9986,N,01155.1555,E,081153.969,A*38
$GPGGA,081153.97,5803.9986,N,01155.1555,E,1,04,2.0,-0039,M,,,,*34
$GPRMB,A,0.36,R,SIM003,SIM001,5803.6367,N,01156.0717,E,000.6,127.,018.1,V*1D
$GPRMC,081153.97,A,5803.9986,N,01155.1555,E,21.7,130.0,100502,01.,E*6D
$GPAPB,A,A,0.4,R,N,,,88.9,M,SIM001,125.6,M,,,*01
$GPGSA,A,3,01,02,03,04,,,,,,,,,2.0,2.0,2.0*34
$GPGSV,3,1,12,17,66,091,,22,60,238,,28,42,297,,03,40,275,*7E
$GPGSV,3,2,12,23,32,128,,18,27,139,,19,22,303,,06,19,102,*72
$GPGSV,3,3,12,10,13,028,,21,06,167,,27,06,346,,26,03,066,*73
$GPGLL,5803.9906,N,01155.1619,E,081156.375,A*39
$GPGGA,081156.38,5803.9906,N,01155.1619,E,1,04,2.0,-0039,M,,,,*37
$GPRMB,A,0.35,R,SIM003,SIM001,5803.6367,N,01156.0717,E,000.6,126.,018.1,V*1F
$GPRMC,081156.38,A,5803.9906,N,01155.1619,E,21.7,123.5,100502,01.,E*69
$GPAPB,A,A,0.4,R,N,,,88.9,M,SIM001,125.2,M,,,*05
$GPGSA,A,3,01,02,03,04,,,,,,,,,2.0,2.0,2.0*34
$GPGSV,3,1,12,17,66,091,,22,60,238,,28,42,297,,03,40,275,*7E
$GPGSV,3,2,12,23,32,128,,18,27,139,,19,22,303,,06,19,102,*72
$GPGSV,3,3,12,10,13,028,,21,06,167,,27,06,346,,26,03,066,*73