$GPGLL,6127.4480,N,02351.0491,E,121434.666,A*30
$GPGGA,121434.67,6127.4480,N,02351.0491,E,1,03,11.1,00150,M,,,,*14
$GPRMC,121434.67,A,6127.4480,N,02351.0491,E,00.0,000.0,250902,06,E*4F
$GPGSA,A,2,26,15,29,,,,,,,,,,11.1,11.1,*16
$GPGSV,3,1,10,08,65,098,,29,56,281,45,28,49,166,,26,45,288,51*77
$GPGSV,3,2,10,23,44,280,47,27,36,088,,10,32,218,,31,25,056,44*7C
$GPGSV,3,3,10,17,17,313,46,15,16,329,50,120,13,224,,131,13,136,*75
$GPGLL,6127.4482,N,02351.0484,E,121435.662,A*33
$GPGGA,121435.66,6127.4482,N,02351.0484,E,1,03,11.4,00150,M,,,,*17
$GPRMC,121435.66,A,6127.4482,N,02351.0484,E,00.0,000.0,250902,06,E*49
$GPGSA,A,2,26,15,29,,,,,,,,,,11.4,11.4,*16
$PMGNST,03.08,2,T,677,05.8,+07087,00*4A
$GPGLL,6127.4479,N,02351.0507,E,121436.658,A*37
$GPGGA,121436.66,6127.4479,N,02351.0507,E,1,03,11.5,00150,M,,,,*1B
$GPRMC,121436.66,A,6127.4479,N,02351.0507,E,00.0,000.0,250902,06,E*44
$GPGSA,A,2,26,15,29,,,,,,,,,,11.5,11.5,*16
$GPGSV,3,1,10,08,65,098,,29,56,281,45,28,49,166,,26,45,288,51*77
$GPGSV,3,2,10,23,44,280,47,27,36,088,,10,32,218,,31,25,056,45*7D
$GPGSV,3,3,10,17,17,313,47,15,16,329,50,120,13,224,,131,13,136,*74
$GPGLL,6127.4473,N,02351.0573,E,121437.654,A*33
$GPGGA,121437.65,6127.4473,N,02351.0573,E,1,03,12.4,00150,M,,,,*12
$GPRMC,121437.65,A,6127.4473,N,02351.0573,E,00.0,000.0,250902,06,E*4F
$GPGSA,A,2,26,15,29,,,,,,,,,,12.4,12.4,*16
$PMGNST,03.08,2,T,677,05.8,+07087,00*4A
$GPGLL,6127.4469,N,02351.0617,E,121438.650,A*32
$GPGGA,121438.65,6127.4469,N,02351.0617,E,1,03,12.0,00150,M,,,,*13
$GPRMC,121438.65,A,6127.4469,N,02351.0617,E,00.0,000.0,250902,06,E*4A
$GPGSA,A,2,26,15,29,,,,,,,,,,12.0,12.0,*16
$GPGSV,3,1,10,08,65,098,,29,56,281,44,28,49,166,,26,45,288,51*76
$GPGSV,3,2,10,23,44,280,46,27,36,088,,10,32,218,,31,25,056,45*7C
$GPGSV,3,3,10,17,17,313,47,15,16,329,50,120,13,224,,131,13,136,*74
$GPGLL,6127.4462,N,02351.0673,E,121439.646,A*3D
$GPGGA,121439.65,6127.4462,N,02351.0673,E,1,03,12.4,00150,M,,,,*1F
$GPRMC,121439.65,A,6127.4462,N,02351.0673,E,00.0,000.0,250902,06,E*42
$GPGSA,A,2,26,15,29,,,,,,,,,,12.4,12.4,*16
$PMGNST,03.08,2,T,677,05.8,+07086,00*4B
$GPGLL,6127.4450,N,02351.0764,E,121440.654,A*36
$GPGGA,121440.65,6127.4450,N,02351.0764,E,1,03,13.0,00150,M,,,,*12
$GPRMC,121440.65,A,6127.4450,N,02351.0764,E,00.0,000.0,250902,06,E*4A
$GPGSA,A,2,26,15,29,,,,,,,,,,13.0,13.0,*16
$GPGSV,3,1,10,08,65,098,,29,56,281,44,28,49,166,,26,45,288,51*76
$GPGSV,3,2,10,23,44,280,47,27,36,088,,10,32,218,,31,25,056,45*7D
$GPGSV,3,3,10,17,17,313,48,15,16,329,51,120,13,224,,131,13,136,*7A
$GPGLL,6127.4441,N,02351.0839,E,121441.650,A*34
$GPGGA,121441.65,6127.4441,N,02351.0839,E,1,03,12.9,00150,M,,,,*1C
$GPRMC,121441.65,A,6127.4441,N,02351.0839,E,00.0,000.0,250902,06,E*4C
$GPGSA,A,2,26,15,29,,,,,,,,,,12.9,12.9,*16
$PMGNST,03.08,2,T,677,05.8,+07086,00*4B
$GPGLL,6127.4434,N,02351.0892,E,121442.646,A*33
$GPGGA,121442.65,6127.4434,N,02351.0892,E,1,03,12.7,00150,M,,,,*12
$GPRMC,121442.65,A,6127.4434,N,02351.0892,E,00.0,000.0,250902,06,E*4C
$GPGSA,A,2,26,15,29,,,,,,,,,,12.7,12.7,*16
$GPGSV,3,1,10,08,65,098,,29,56,281,44,28,49,166,,26,45,288,51*76
$GPGSV,3,2,10,23,44,280,46,27,36,088,,10,32,218,,31,25,056,46*7F
$GPGSV,3,3,10,17,17,313,47,15,16,329,50,120,13,224,,131,13,136,*74
$GPGLL,6127.4431,N,02351.0933,E,121443.654,A*3E
$GPGGA,121443.65,6127.4431,N,02351.0933,E,1,03,12.4,00150,M,,,,*1F
$GPRMC,121443.65,A,6127.4431,N,02351.0933,E,00.0,000.0,250902,06,E*42
$GPGSA,A,2,26,15,29,,,,,,,,,,12.4,12.4,*16
$PMGNST,03.08,2,T,677,05.8,+07085,00*48
$GPGLL,6127.4427,N,02351.0969,E,121444.650,A*35
$GPGGA,121444.65,6127.4427,N,02351.0969,E,1,03,12.3,00150,M,,,,*17
$GPRMC,121444.65,A,6127.4427,N,02351.0969,E,00.0,000.0,250902,06,E*4D
$GPGSA,A,2,26,15,29,,,,,,,,,,12.3,12.3,*16
$GPGSV,3,1,10,08,65,098,,29,56,281,44,28,49,166,,26,45,288,51*76
$GPGSV,3,2,10,23,44,280,46,27,36,088,,10,32,218,,31,25,056,44*7D
$GPGSV,3,3,10,17,17,313,47,15,16,329,50,120,13,224,,131,13,136,*74
$GPGLL,6127.4425,N,02351.0992,E,121445.658,A*3A
$GPGGA,121445.66,6127.4425,N,02351.0992,E,1,03,12.4,00150,M,,,,*14
$GPRMC,121445.66,A,6127.4425,N,02351.0992,E,00.0,000.0,250902,06,E*49
$GPGSA,A,2,26,15,29,,,,,,,,,,12.4,12.4,*16
$PMGNST,03.08,2,T,677,05.8,+07085,00*48
$GPGLL,6127.4420,N,02351.1029,E,121446.654,A*38
$GPGGA,121446.65,6127.4420,N,02351.1029,E,1,03,12.9,00150,M,,,,*14
$GPRMC,121446.65,A,6127.4420,N,02351.1029,E,00.0,000.0,250902,06,E*44
$GPGSA,A,2,26,15,29,,,,,,,,,,12.9,12.9,*16
$GPGSV,3,1,10,08,65,098,,29,56,281,44,28,49,166,,26,45,288,51*76
$GPGSV,3,2,10,23,44,280,46,27,36,088,,10,32,218,,31,25,056,44*7D
$GPGSV,3,3,10,17,17,313,48,15,16,329,50,120,13,224,,131,13,136,*7B
$GPGLL,6127.4419,N,02351.1048,E,121447.650,A*30
$GPGGA,121447.65,6127.4419,N,02351.1048,E,1,03,12.4,00150,M,,,,*15
$GPRMC,121447.65,A,6127.4419,N,02351.1048,E,00.0,000.0,250902,06,E*48
$GPGSA,A,2,26,15,29,,,,,,,,,,12.4,12.4,*16
$PMGNST,03.08,2,T,677,05.8,+07084,00*49
$GPGLL,6127.4418,N,02351.1067,E,121448.646,A*34
$GPGGA,121448.65,6127.4418,N,02351.1067,E,1,03,12.0,00150,M,,,,*12
$GPRMC,121448.65,A,6127.4418,N,02351.1067,E,00.0,000.0,250902,06,E*4B
$GPGSA,A,2,26,15,29,,,,,,,,,,12.0,12.0,*16
$GPGSV,3,1,10,08,65,098,,29,56,281,44,28,49,166,,26,45,288,53*74
$GPGSV,3,2,10,23,44,280,46,27,36,088,,10,32,218,,31,25,056,44*7D
$GPGSV,3,3,10,17,17,313,48,15,16,329,50,120,13,224,,131,13,136,*7B
$GPGLL,6127.4416,N,02351.1079,E,121449.654,A*37
$GPGGA,121449.65,6127.4416,N,02351.1079,E,1,03,23.5,00150,M,,,,*15
$GPRMC,121449.65,A,6127.4416,N,02351.1079,E,00.0,000.0,250902,06,E*4B
$GPGSA,A,2,15,26,29,,,,,,,,,,23.5,23.5,*16
$PMGNST,03.08,2,T,661,05.6,+07084,00*40
$GPGLL,6127.4416,N,02351.1085,E,121450.650,A*38
$GPGGA,121450.65,6127.4416,N,02351.1085,E,1,03,23.2,00150,M,,,,*19
$GPRMC,121450.65,A,6127.4416,N,02351.1085,E,00.0,000.0,250902,06,E*40
$GPGSA,A,2,15,26,29,,,,,,,,,,23.2,23.2,*16
$GPGSV,3,1,10,08,65,098,,29,56,281,44,28,49,166,,26,45,288,51*76
$GPGSV,3,2,10,23,44,280,46,27,36,088,,10,32,218,,31,25,056,45*7C
$GPGSV,3,3,10,17,17,313,48,15,16,329,50,120,13,224,,131,13,136,*7B
$GPGLL,6127.4415,N,02351.1092,E,121451.646,A*3B
$GPGGA,121451.65,6127.4415,N,02351.1092,E,1,03,23.4,00150,M,,,,*1B
$GPRMC,121451.65,A,6127.4415,N,02351.1092,E,00.0,000.0,250902,06,E*44
$GPGSA,A,2,15,26,29,,,,,,,,,,23.4,23.4,*16
$PMGNST,03.08,2,T,655,05.6,+07083,00*40
$GPGLL,6127.4414,N,02351.1098,E,121452.654,A*30
$GPGGA,121452.65,6127.4414,N,02351.1098,E,1,03,23.3,00150,M,,,,*14
$GPRMC,121452.65,A,6127.4414,N,02351.1098,E,00.0,000.0,250902,06,E*4C
$GPGSA,A,2,15,26,29,,,,,,,,,,23.3,23.3,*16
$GPGSV,3,1,10,08,65,098,,29,56,281,44,28,49,166,,26,45,288,50*77
$GPGSV,3,2,10,23,44,280,46,27,36,088,,10,32,218,,31,25,056,45*7C
$GPGSV,3,3,10,17,17,313,49,15,16,329,51,120,13,224,,131,13,136,*7B
$GPGLL,6127.4414,N,02351.1098,E,121453.651,A*34
$GPGGA,121453.65,6127.4414,N,02351.1098,E,1,03,23.2,00150,M,,,,*14
$GPRMC,121453.65,A,6127.4414,N,02351.1098,E,00.0,000.0,250902,06,E*4D
$GPGSA,A,2,15,26,29,,,,,,,,,,23.2,23.2,*16
$PMGNST,03.08,2,T,655,05.6,+07082,00*41
$GPGLL,6127.4420,N,02351.1161,E,121454.647,A*34
$GPGGA,121454.65,6127.4420,N,02351.1161,E,1,04,3.5,00150,M,,,,*21
$GPRMC,121454.65,A,6127.4420,N,02351.1161,E,00.0,000.0,250902,06,E*4A
$GPGSA,A,2,15,26,29,31,,,,,,,,,03.5,03.5,*14
$GPGSV,3,1,10,08,65,098,,29,56,281,45,28,49,166,,26,45,288,51*77
$GPGSV,3,2,10,23,44,280,45,27,36,088,,10,32,218,,31,25,056,44*7E
$GPGSV,3,3,10,17,17,313,49,15,16,329,50,120,13,224,,131,13,136,*7A
$GPGLL,6127.4421,N,02351.1170,E,121455.655,A*37
$GPGGA,121455.65,6127.4421,N,02351.1170,E,1,04,3.5,00150,M,,,,*21
$GPRMC,121455.65,A,6127.4421,N,02351.1170,E,00.0,000.0,250902,06,E*4A
$GPGSA,A,2,15,26,29,31,,,,,,,,,03.5,03.5,*14
$PMGNST,03.08,2,T,655,05.6,+07082,00*41
$GPGLL,6127.4415,N,02351.1176,E,121456.651,A*31
$GPGGA,121456.65,6127.4415,N,02351.1176,E,1,04,3.4,00150,M,,,,*22
$GPRMC,121456.65,A,6127.4415,N,02351.1176,E,00.0,000.0,250902,06,E*48
$GPGSA,A,2,15,26,31,29,,,,,,,,,03.4,03.4,*14
$GPGSV,3,1,10,08,65,098,,29,56,281,44,28,49,166,,26,45,288,50*77
$GPGSV,3,2,10,23,44,280,46,27,36,088,,10,32,218,,31,25,056,45*7C
$GPGSV,3,3,10,17,17,313,49,15,16,329,51,120,13,224,,131,13,136,*7B
$GPGLL,6127.4414,N,02351.1182,E,121457.647,A*3D
$GPGGA,121457.65,6127.4414,N,02351.1182,E,1,04,3.4,00150,M,,,,*29
$GPRMC,121457.65,A,6127.4414,N,02351.1182,E,00.0,000.0,250902,06,E*43
$GPGSA,A,2,15,26,31,29,,,,,,,,,03.4,03.4,*14
$PMGNST,03.08,2,T,655,05.6,+07081,00*42
$GPGLL,6127.4410,N,02351.1185,E,121458.655,A*32
$GPGGA,121458.65,6127.4410,N,02351.1185,E,1,04,3.4,00150,M,,,,*25
$GPRMC,121458.65,A,6127.4410,N,02351.1185,E,00.0,000.0,250902,06,E*4F
$GPGSA,A,2,15,26,31,29,,,,,,,,,03.4,03.4,*14
$GPGSV,3,1,10,08,65,098,,29,56,281,44,28,49,166,,26,45,288,51*76
$GPGSV,3,2,10,23,44,280,46,27,36,088,,10,32,218,,31,25,056,46*7F
$GPGSV,3,3,10,17,17,313,49,15,16,329,51,120,13,224,,131,13,136,*7B
$GPGLL,6127.4411,N,02351.1185,E,121459.663,A*37
$GPGGA,121459.66,6127.4411,N,02351.1185,E,1,04,3.4,00150,M,,,,*26
$GPRMC,121459.66,A,6127.4411,N,02351.1185,E,00.0,000.0,250902,06,E*4C
$GPGSA,A,2,15,26,31,29,,,,,,,,,03.4,03.4,*14
$PMGNST,03.08,2,T,655,05.6,+07081,00*42
$GPGLL,6127.4412,N,02351.1185,E,121500.659,A*30
$GPGGA,121500.66,6127.4412,N,02351.1185,E,1,04,3.4,00150,M,,,,*28
$GPRMC,121500.66,A,6127.4412,N,02351.1185,E,00.0,000.0,250902,06,E*42
$GPGSA,A,2,15,26,31,29,,,,,,,,,03.4,03.4,*14
$GPGSV,3,1,10,08,65,098,,29,56,281,44,28,49,166,,26,45,288,52*75
$GPGSV,3,2,10,23,44,280,47,27,36,088,,10,32,218,,31,25,056,45*7D
$GPGSV,3,3,10,17,17,313,49,15,16,329,51,120,13,224,,131,13,136,*7B
$GPGLL,6127.4412,N,02351.1186,E,121501.655,A*3E
$GPGGA,121501.65,6127.4412,N,02351.1186,E,1,04,4.2,00150,M,,,,*28
$GPRMC,121501.65,A,6127.4412,N,02351.1186,E,00.0,000.0,250902,06,E*43
$GPGSA,A,2,26,15,31,29,,,,,,,,,04.2,04.2,*14
$PMGNST,03.08,2,T,649,05.5,+07081,00*4C
$GPGLL,6127.4412,N,02351.1185,E,121502.663,A*3B
$GPGGA,121502.66,6127.4412,N,02351.1185,E,1,04,4.2,00150,M,,,,*2B
$GPRMC,121502.66,A,6127.4412,N,02351.1185,E,00.0,000.0,250902,06,E*40
$GPGSA,A,2,26,15,31,29,,,,,,,,,04.2,04.2,*14
$GPGSV,3,1,10,08,65,098,,29,56,281,46,28,49,166,,26,45,288,52*77
$GPGSV,3,2,10,23,44,280,45,27,36,088,,10,32,218,,31,25,056,49*73
$GPGSV,3,3,10,17,17,313,49,15,16,329,50,120,13,224,,131,13,136,*7A
$GPGLL,6127.4413,N,02351.1185,E,121503.659,A*32
$GPGGA,121503.66,6127.4413,N,02351.1185,E,1,04,4.2,00150,M,,,,*2B
$GPRMC,121503.66,A,6127.4413,N,02351.1185,E,00.0,000.0,250902,06,E*40
$GPGSA,A,2,26,15,31,29,,,,,,,,,04.2,04.2,*14
$PMGNST,03.08,2,T,638,05.4,+07080,00*4A
$GPGLL,6127.4415,N,02351.1185,E,121504.655,A*3F
$GPGGA,121504.65,6127.4415,N,02351.1185,E,1,04,4.2,00150,M,,,,*29
$GPRMC,121504.65,A,6127.4415,N,02351.1185,E,00.0,000.0,250902,06,E*42
$GPGSA,A,2,26,15,31,29,,,,,,,,,04.2,04.2,*14
$GPGSV,3,1,10,08,65,098,,29,56,281,46,28,49,166,,26,45,288,52*77
$GPGSV,3,2,10,23,44,280,44,27,36,088,,10,32,218,,31,25,056,48*73
$GPGSV,3,3,10,17,17,313,49,15,16,329,51,120,13,224,,131,13,136,*7B
$GPGLL,6127.4415,N,02351.1187,E,121505.663,A*39
$GPGGA,121505.66,6127.4415,N,02351.1187,E,1,04,4.2,00150,M,,,,*29
$GPRMC,121505.66,A,6127.4415,N,02351.1187,E,00.0,000.0,250902,06,E*42
$GPGSA,A,2,26,15,31,29,,,,,,,,,04.2,04.2,*14
$PMGNST,03.08,2,T,655,05.6,+07080,00*43
$GPGLL,6127.4414,N,02351.1188,E,121506.656,A*32
$GPGGA,121506.66,6127.4414,N,02351.1188,E,1,05,3.1,00150,M,,,,*21
$GPRMC,121506.66,A,6127.4414,N,02351.1188,E,00.0,000.0,250902,06,E*4F
$GPGSA,A,2,15,31,26,29,23,,,,,,,,03.1,03.1,*15
$GPGSV,3,1,10,08,65,098,,29,56,281,44,28,49,166,,26,45,288,48*7E
$GPGSV,3,2,10,23,44,280,39,27,36,088,,10,32,218,,31,25,056,49*78
$GPGSV,3,3,10,17,17,313,48,15,16,329,51,120,13,224,,131,13,136,*7A
$GPGLL,6127.4413,N,02351.1190,E,121507.664,A*3C
$GPGGA,121507.66,6127.4413,N,02351.1190,E,1,05,3.1,00150,M,,,,*2E
$GPRMC,121507.66,A,6127.4413,N,02351.1190,E,00.0,000.0,250902,06,E*40
$GPGSA,A,2,15,31,26,29,23,,,,,,,,03.1,03.1,*15
$PMGNST,03.08,2,T,655,05.6,+07079,00*45
$GPGLL,6127.4413,N,02351.1191,E,121508.672,A*35
$GPGGA,121508.67,6127.4413,N,02351.1191,E,1,05,3.1,00150,M,,,,*21
$GPRMC,121508.67,A,6127.4413,N,02351.1191,E,00.0,000.0,250902,06,E*4F
$GPGSA,A,2,15,31,26,29,23,,,,,,,,03.1,03.1,*15
$GPGSV,3,1,10,08,65,098,,29,56,281,44,28,49,166,,26,45,288,48*7E
$GPGSV,3,2,10,23,44,280,39,27,36,088,,10,32,218,,31,25,056,48*79
$GPGSV,3,3,10,17,17,313,49,15,16,329,50,120,13,224,,131,13,136,*7A
$GPGLL,6127.4414,N,02351.1191,E,121509.668,A*38
$GPGGA,121509.67,6127.4414,N,02351.1191,E,1,05,3.1,00150,M,,,,*27
$GPRMC,121509.67,A,6127.4414,N,02351.1191,E,00.0,000.0,250902,06,E*49
$GPGSA,A,2,15,31,26,29,23,,,,,,,,03.1,03.1,*15
$PMGNST,03.08,2,T,655,05.6,+07079,00*45
$GPGLL,6127.4415,N,02351.1192,E,121510.676,A*3D
$GPGGA,121510.68,6127.4415,N,02351.1192,E,1,05,3.1,00150,M,,,,*22
$GPRMC,121510.68,A,6127.4415,N,02351.1192,E,00.0,000.0,250902,06,E*4C
$GPGSA,A,2,15,31,26,29,23,,,,,,,,03.1,03.1,*15
$GPGSV,3,1,10,08,65,098,,29,56,281,44,28,49,166,,26,45,288,48*7E
$GPGSV,3,2,10,23,44,280,39,27,36,088,,10,32,218,,31,25,056,48*79
$GPGSV,3,3,10,17,17,313,48,15,16,329,50,120,13,224,,131,13,136,*7B
$GPGLL,6127.4417,N,02351.1194,E,121511.672,A*3C
$GPGGA,121511.67,6127.4417,N,02351.1194,E,1,05,3.1,00150,M,,,,*28
$GPRMC,121511.67,A,6127.4417,N,02351.1194,E,00.0,000.0,250902,06,E*46
$GPGSA,A,2,15,26,31,29,23,,,,,,,,03.1,03.1,*15
$PMGNST,03.08,2,T,655,05.6,+07079,00*45
$GPGLL,6127.4419,N,02351.1195,E,121512.668,A*3B
$GPGGA,121512.67,6127.4419,N,02351.1195,E,1,05,3.1,00150,M,,,,*24
$GPRMC,121512.67,A,6127.4419,N,02351.1195,E,00.0,000.0,250902,06,E*4A
$GPGSA,A,2,15,26,31,29,23,,,,,,,,03.1,03.1,*15
$GPGSV,3,1,10,08,65,098,,29,56,281,44,28,49,166,,26,45,288,48*7E
$GPGSV,3,2,10,23,44,280,39,27,36,088,,10,32,218,,31,25,056,48*79
$GPGSV,3,3,10,17,17,313,48,15,16,329,49,120,13,224,,131,13,136,*73
$GPGLL,6127.4422,N,02351.1196,E,121513.676,A*3E
$GPGGA,121513.68,6127.4422,N,02351.1196,E,1,05,3.2,00150,M,,,,*22
$GPRMC,121513.68,A,6127.4422,N,02351.1196,E,00.0,000.0,250902,06,E*4F
$GPGSA,A,2,15,26,31,29,23,,,,,,,,03.2,03.2,*15
$PMGNST,03.08,2,T,655,05.6,+07079,00*45
$GPGLL,6127.4424,N,02351.1197,E,121514.672,A*3A
$GPGGA,121514.67,6127.4424,N,02351.1197,E,1,05,3.2,00150,M,,,,*2D
$GPRMC,121514.67,A,6127.4424,N,02351.1197,E,00.0,000.0,250902,06,E*40
$GPGSA,A,2,15,26,31,29,23,,,,,,,,03.2,03.2,*15
$GPGSV,3,1,10,08,65,098,,29,56,281,44,28,49,166,,26,45,288,49*7F
$GPGSV,3,2,10,23,44,280,36,27,36,088,,10,32,218,,31,25,056,48*76
$GPGSV,3,3,10,17,17,313,48,15,16,329,49,120,13,224,,131,13,136,*73
$GPGLL,6127.4424,N,02351.1199,E,121515.668,A*3E
$GPGGA,121515.67,6127.4424,N,02351.1199,E,1,05,3.2,00150,M,,,,*22
$GPRMC,121515.67,A,6127.4424,N,02351.1199,E,00.0,000.0,250902,06,E*4F
$GPGSA,A,2,15,26,31,29,23,,,,,,,,03.2,03.2,*15
$PMGNST,03.08,2,T,655,05.6,+07079,00*45
$GPGLL,6127.4424,N,02351.1199,E,121516.676,A*32
$GPGGA,121516.68,6127.4424,N,02351.1199,E,1,05,3.2,00150,M,,,,*2E
$GPRMC,121516.68,A,6127.4424,N,02351.1199,E,00.0,000.0,250902,06,E*43
$GPGSA,A,2,15,26,31,29,23,,,,,,,,03.2,03.2,*15
$GPGSV,3,1,10,08,65,098,,29,56,281,44,28,49,166,,26,45,288,48*7E
$GPGSV,3,2,10,23,44,280,36,27,36,088,,10,32,218,,31,25,056,48*76
$GPGSV,3,3,10,17,17,313,47,15,16,329,49,120,13,224,,131,13,136,*7C
$GPGLL,6127.4424,N,02351.1199,E,121517.672,A*37
$GPGGA,121517.67,6127.4424,N,02351.1199,E,1,05,3.2,00150,M,,,,*20
$GPRMC,121517.67,A,6127.4424,N,02351.1199,E,00.0,000.0,250902,06,E*4D
$GPGSA,A,2,15,26,31,29,23,,,,,,,,03.2,03.2,*15
$PMGNST,03.08,2,T,649,05.5,+07079,00*4B