//$GPGGA,092438.60,600.0000,S,06060.0000,W,1,03,4.5,00166.5,M,33.5,M,,*54
$GPRMC,150010.10,A,6126.8251,N,02351.8752,E,3.6,256.5,241203,03.3,W*79
$GPGSA,A,3,01,02,03,04,05,,,,,,,,3.5,4.0,5.5*31
$GPGLL,6126.8240,N,02351.8745,E,092445.047,A*3F

//$GPGGA,092438.60,600.0000,S,06060.0000,W,1,03,4.5,00166.5,M,33.5,M,,*54
$GPRMC,150010.10,A,6126.8251,N,02351.8752,E,3.6,256.5,241203,03.3,W*79
$GPGSA,A,3,01,02,03,04,05,,,,,,,,3.5,4.0,5.5*31
$GPGLL,6126.8240,N,02351.8745,E,092445.047,A*3F

//$GPGGA,092438.60,600.0000,S,06060.0000,W,1,03,4.5,00166.5,M,33.5,M,,*54
$GPRMC,150010.10,A,6126.8251,N,02351.8752,E,3.6,256.5,241203,03.3,W*79
$GPGSA,A,3,01,02,03,04,05,,,,,,,,3.5,4.0,5.5*31
$GPGLL,6126.8240,N,02351.8745,E,092445.047,A*3F

//$GPGGA,092438.60,600.0000,S,06060.0000,W,1,03,4.5,00166.5,M,33.5,M,,*54
$GPRMC,150010.10,A,6126.8251,N,02351.8752,E,3.6,256.5,241203,03.3,W*79
$GPGSA,A,3,01,02,03,04,05,,,,,,,,3.5,4.0,5.5*31
$GPGLL,6126.8240,N,02351.8745,E,092445.047,A*3F

$GPGSV,2,1,06,01,11,111,11,02,,222,22,03,03,,33*7C
$GPGSV,2,2,06,04,44,444,,05,-5,555,55,06,66,666,66*57

$GPGSV,2,1,06,01,11,111,11,02,,222,22,03,03,,33*7C
$GPGSV,2,2,06,04,44,444,,05,-5,555,55,06,66,666,66*57

$GPGSV,2,1,06,01,11,111,11,02,,222,22,03,03,,33*7C
$GPGSV,2,2,06,04,44,444,,05,-5,555,55,06,66,666,66*57

$GPGSV,2,1,06,01,11,111,11,02,,222,22,03,03,,33*7C
$GPGSV,2,2,06,04,44,444,,05,-5,555,55,06,66,666,66*57

$GPGSV,2,1,06,01,11,111,11,02,,222,22,03,03,,33*7C
$GPGSV,2,2,06,04,44,444,,05,-5,555,55,06,66,666,66*57

$GPGLL,6459.8757,N,01433.8547,E,091931.375,A*3E
$GPGGA,092047.19,6500.2174,N,01433.8522,E,0,04,2.0,,M,,,,*1D
$GPRMB,A,0.21,L,SIM003,SIM001,6500.0900,N,01433.8589,E,000.2,00..,000.0,V*18
$GPGSA,A,1,01,02,03,04,,,,,,,,,,,*1A
$GPRMC,092047.19,A,6500.2174,N,01433.8522,E,,,200302,,N,N*17
$GPAPB,A,A,0.2,L,N,,,87.6,M,SIM001,358.1,M,,,*16
$GPGSV,3,1,12,06,53,095,,30,52,150,,15,51,090,,25,37,230,*7F
$GPGSV,3,2,12,24,32,051,,22,21,292,,01,20,315,,14,20,321,*71
$GPGSV,3,3,12,24,,,,22,,,,04,,,,,,,*78
$GPGLL,6459.8612,N,01433.8550,E,091933.781,A*35
$GPGGA,092153.41,6500.1076,N,01433.8551,E,1,04,2.0,,M,,,,*11
$*00

$GPGSA,A,3,01,02,03,04,,,,,,,,,,,*18

$GPGLL,6459.8757,N,01433.8547,E,091931.375,A*3E
$GPGGA,092047.19,6500.2174,N,01433.8522,E,0,04,2.0,,M,,,,*1D
$GPRMB,A,0.21,L,SIM003,SIM001,6500.0900,N,01433.8589,E,000.2,00..,000.0,V*18
$GPGSA,A,1,01,02,03,04,,,,,,,,,,,*1A
$GPRMC,092047.19,A,6500.2174,N,01433.8522,E,,,200302,,N,N*17
$GPAPB,A,A,0.2,L,N,,,87.6,M,SIM001,358.1,M,,,*16
$GPGSV,3,1,12,06,53,095,,30,52,150,,15,51,090,,25,37,230,*7F
$GPGSV,3,2,12,24,32,051,,22,21,292,,01,20,315,,14,20,321,*71
$GPGSV,3,3,12,24,,,,22,,,,04,,,,,,,*78
$GPGLL,6459.8612,N,01433.8550,E,091933.781,A*35
$GPGGA,092153.41,6500.1076,N,01433.8551,E,1,04,2.0,,M,,,,*11
$*00

$GPGSA,A,3,01,02,03,04,,,,,,,,,,,*18

$GPGSV,2,1,06,01,11,111,11,02,,222,22,03,03,,33*7C
$GPGSV,2,2,06,04,44,444,,05,-5,555,55,06,66,666,66*57

$GPGSV,2,1,06,01,11,111,11,02,,222,22,03,03,,33*7C
$GPGSV,2,2,06,04,44,444,,05,-5,555,55,06,66,666,66*57

$GPGSV,2,1,06,01,11,111,11,02,,222,22,03,03,,33*7C
$GPGSV,2,2,06,04,44,444,,05,-5,555,55,06,66,666,66*57

$GPGSV,2,1,06,01,11,111,11,02,,222,22,03,03,,33*7C
$GPGSV,2,2,06,04,44,444,,05,-5,555,55,06,66,666,66*57

$GPGSV,2,1,06,01,11,111,11,02,,222,22,03,03,,33*7C
$GPGSV,2,2,06,04,44,444,,05,-5,555,55,06,66,666,66*57

$GPGSV,2,1,06,01,11,111,11,02,,222,22,03,03,,33*7C
$GPGSV,2,2,06,04,44,444,,05,-5,555,55,06,66,666,66*57

$GPGSV,2,1,06,01,11,111,11,02,,222,22,03,03,,33*7C
$GPGSV,2,2,06,04,44,444,,05,-5,555,55,06,66,666,66*57

$GPGSV,2,1,06,01,11,111,11,02,,222,22,03,03,,33*7C
$GPGSV,2,2,06,04,44,444,,05,-5,555,55,06,66,666,66*57

$GPGSV,2,1,06,01,11,111,11,02,,222,22,03,03,,33*7C
$GPGSV,2,2,06,04,44,444,,05,-5,555,55,06,66,666,66*57

$GPGSV,2,1,06,01,11,111,11,02,,222,22,03,03,,33*7C
$GPGSV,2,2,06,04,44,444,,05,-5,555,55,06,66,666,66*57

$GPGSV,2,1,06,01,11,111,11,02,,222,22,03,03,,33*7C
$GPGSV,2,2,06,04,44,444,,05,-5,555,55,06,66,666,66*57

$GPGSV,2,1,06,01,11,111,11,02,,222,22,03,03,,33*7C
$GPGSV,2,2,06,04,44,444,,05,-5,555,55,06,66,666,66*57

$GPGSV,2,1,06,01,11,111,11,02,,222,22,03,03,,33*7C
$GPGSV,2,2,06,04,44,444,,05,-5,555,55,06,66,666,66*57

$GPGSV,2,1,06,01,11,111,11,02,,222,22,03,03,,33*7C
$GPGSV,2,2,06,04,44,444,,05,-5,555,55,06,66,666,66*57

$GPGSV,2,1,06,01,11,111,11,02,,222,22,03,03,,33*7C
$GPGSV,2,2,06,04,44,444,,05,-5,555,55,06,66,666,66*57

$GPGSV,2,1,06,01,11,111,11,02,,222,22,03,03,,33*7C
$GPGSV,2,2,06,04,44,444,,05,-5,555,55,06,66,666,66*57

$GPGSV,2,1,06,01,11,111,11,02,,222,22,03,03,,33*7C
$GPGSV,2,2,06,04,44,444,,05,-5,555,55,06,66,666,66*57

$GPGSV,2,1,06,01,11,111,11,02,,222,22,03,03,,33*7C
$GPGSV,2,2,06,04,44,444,,05,-5,555,55,06,66,666,66*57

$GPGSV,2,1,06,01,11,111,11,02,,222,22,03,03,,33*7C
$GPGSV,2,2,06,04,44,444,,05,-5,555,55,06,66,666,66*57

$GPGSV,2,1,06,01,11,111,11,02,,222,22,03,03,,33*7C
$GPGSV,2,2,06,04,44,444,,05,-5,555,55,06,66,666,66*57

$GPGSV,2,1,06,01,11,111,11,02,,222,22,03,03,,33*7C
$GPGSV,2,2,06,04,44,444,,05,-5,555,55,06,66,666,66*57

$GPGSV,2,1,06,01,11,111,11,02,,222,22,03,03,,33*7C
$GPGSV,2,2,06,04,44,444,,05,-5,555,55,06,66,666,66*57

$GPGSV,2,1,06,01,11,111,11,02,,222,22,03,03,,33*7C
$GPGSV,2,2,06,04,44,444,,05,-5,555,55,06,66,666,66*57

$GPGSV,2,1,06,01,11,111,11,02,,222,22,03,03,,33*7C
$GPGSV,2,2,06,04,44,444,,05,-5,555,55,06,66,666,66*57

$GPGSV,2,1,06,01,11,111,11,02,,222,22,03,03,,33*7C
$GPGSV,2,2,06,04,44,444,,05,-5,555,55,06,66,666,66*57

$GPGSV,2,1,06,01,11,111,11,02,,222,22,03,03,,33*7C
$GPGSV,2,2,06,04,44,444,,05,-5,555,55,06,66,666,66*57

$GPGSV,2,1,06,01,11,111,11,02,,222,22,03,03,,33*7C
$GPGSV,2,2,06,04,44,444,,05,-5,555,55,06,66,666,66*57

$GPGSV,2,1,06,01,11,111,11,02,,222,22,03,03,,33*7C
$GPGSV,2,2,06,04,44,444,,05,-5,555,55,06,66,666,66*57

$GPGSV,2,1,06,01,11,111,11,02,,222,22,03,03,,33*7C
$GPGSV,2,2,06,04,44,444,,05,-5,555,55,06,66,666,66*57

$GPGSV,2,1,06,01,11,111,11,02,,222,22,03,03,,33*7C
$GPGSV,2,2,06,04,44,444,,05,-5,555,55,06,66,666,66*57

$GPGSV,2,1,06,01,11,111,11,02,,222,22,03,03,,33*7C
$GPGSV,2,2,06,04,44,444,,05,-5,555,55,06,66,666,66*57

$GPGSV,2,1,06,01,11,111,11,02,,222,22,03,03,,33*7C
$GPGSV,2,2,06,04,44,444,,05,-5,555,55,06,66,666,66*57

$GPGSV,2,1,06,01,11,111,11,02,,222,22,03,03,,33*7C
$GPGSV,2,2,06,04,44,444,,05,-5,555,55,06,66,666,66*57

$GPGSV,2,1,06,01,11,111,11,02,,222,22,03,03,,33*7C
$GPGSV,2,2,06,04,44,444,,05,-5,555,55,06,66,666,66*57

$GPGSV,2,1,06,01,11,111,11,02,,222,22,03,03,,33*7C
$GPGSV,2,2,06,04,44,444,,05,-5,555,55,06,66,666,66*57

$GPGSV,2,1,06,01,11,111,11,02,,222,22,03,03,,33*7C
$GPGSV,2,2,06,04,44,444,,05,-5,555,55,06,66,666,66*57

$GPGSV,2,1,06,01,11,111,11,02,,222,22,03,03,,33*7C
$GPGSV,2,2,06,04,44,444,,05,-5,555,55,06,66,666,66*57

$GPGSV,2,1,06,01,11,111,11,02,,222,22,03,03,,33*7C
$GPGSV,2,2,06,04,44,444,,05,-5,555,55,06,66,666,66*57

$GPGSV,2,1,06,01,11,111,11,02,,222,22,03,03,,33*7C
$GPGSV,2,2,06,04,44,444,,05,-5,555,55,06,66,666,66*57

$GPGSV,2,1,06,01,11,111,11,02,,222,22,03,03,,33*7C
$GPGSV,2,2,06,04,44,444,,05,-5,555,55,06,66,666,66*57

$GPGSV,2,1,06,01,11,111,11,02,,222,22,03,03,,33*7C
$GPGSV,2,2,06,04,44,444,,05,-5,555,55,06,66,666,66*57

$GPGSV,2,1,06,01,11,111,11,02,,222,22,03,03,,33*7C
$GPGSV,2,2,06,04,44,444,,05,-5,555,55,06,66,666,66*57

$GPGSV,2,1,06,01,11,111,11,02,,222,22,03,03,,33*7C
$GPGSV,2,2,06,04,44,444,,05,-5,555,55,06,66,666,66*57

$GPGSV,2,1,06,01,11,111,11,02,,222,22,03,03,,33*7C
$GPGSV,2,2,06,04,44,444,,05,-5,555,55,06,66,666,66*57

$GPGSV,2,1,06,01,11,111,11,02,,222,22,03,03,,33*7C
$GPGSV,2,2,06,04,44,444,,05,-5,555,55,06,66,666,66*57

$GPGSV,2,1,06,01,11,111,11,02,,222,22,03,03,,33*7C
$GPGSV,2,2,06,04,44,444,,05,-5,555,55,06,66,666,66*57

$GPGSV,2,1,06,01,11,111,11,02,,222,22,03,03,,33*7C
$GPGSV,2,2,06,04,44,444,,05,-5,555,55,06,66,666,66*57

$GPGSV,2,1,06,01,11,111,11,02,,222,22,03,03,,33*7C
$GPGSV,2,2,06,04,44,444,,05,-5,555,55,06,66,666,66*57

$GPGSV,2,1,06,01,11,111,11,02,,222,22,03,03,,33*7C
$GPGSV,2,2,06,04,44,444,,05,-5,555,55,06,66,666,66*57

$GPGSV,2,1,06,01,11,111,11,02,,222,22,03,03,,33*7C
$GPGSV,2,2,06,04,44,444,,05,-5,555,55,06,66,666,66*57

$GPGSV,2,1,06,01,11,111,11,02,,222,22,03,03,,33*7C
$GPGSV,2,2,06,04,44,444,,05,-5,555,55,06,66,666,66*57

$GPGSV,2,1,06,01,11,111,11,02,,222,22,03,03,,33*7C
$GPGSV,2,2,06,04,44,444,,05,-5,555,55,06,66,666,66*57

$GPGGA,092438.60,600.0000,S,06060.0000,W,1,03,4.5,00166.5,M,33.5,M,,*54
$GPRMC,150010.10,A,6126.8251,N,02351.8752,E,3.6,256.5,241203,03.3,W*79
$GPGSA,A,3,01,02,03,04,05,,,,,,,,3.5,4.0,5.5*31
$GPGLL,6126.8240,N,02351.8745,E,092445.047,A*3F



